{
"type": "FeatureCollection",
                                                                                
"features": [
{ "type": "Feature", "properties": { "ID": "1029", "NAME": "RELOAD, INC.-ST. LOUIS-MO", "TYPE": "RAIL", "MODE_TYPE": "RAIL & TRUCK", "CITY": "ST. LOUIS", "STATE": "MO", "FIPS": "29", "ZIP": "63110", "ZIP2": "2533", "PARCEL": 0.000000, "LATITUDE": 38.624610, "LONGITUDE": -90.242950, "GEOSOURCE": "GDT 2000 STREETS", "CREATEDATE": "2003\/04\/09", "CREATOR": "INDUS", "MODDATE": null, "ASSOC": "CN" }, "geometry": { "type": "Point", "coordinates": [ -90.24295, 38.62461 ] } },
{ "type": "Feature", "properties": { "ID": "1030", "NAME": "RELOAD CENTRAL INC-KANSAS CITY-MO", "TYPE": "RAIL", "MODE_TYPE": "RAIL & TRUCK", "CITY": "KANSAS CITY", "STATE": "MO", "FIPS": "29", "ZIP": "64123", "ZIP2": "1969", "PARCEL": 0.000000, "LATITUDE": 39.112060, "LONGITUDE": -94.504390, "GEOSOURCE": "GDT 2000 STREETS", "CREATEDATE": "2003\/04\/09", "CREATOR": "INDUS", "MODDATE": null, "ASSOC": "CN" }, "geometry": { "type": "Point", "coordinates": [ -94.50439, 39.11206 ] } },
{ "type": "Feature", "properties": { "ID": "1031", "NAME": "CENTRAL MISSOURI RELOAD-KANSAS CITY-MO", "TYPE": "RAIL", "MODE_TYPE": "RAIL & TRUCK", "CITY": "KANSAS CITY", "STATE": "MO", "FIPS": "29", "ZIP": "64127", "ZIP2": null, "PARCEL": 0.000000, "LATITUDE": 39.095080, "LONGITUDE": -94.536350, "GEOSOURCE": "GDT 2000 STREETS", "CREATEDATE": "2003\/04\/09", "CREATOR": "INDUS", "MODDATE": null, "ASSOC": "CN" }, "geometry": { "type": "Point", "coordinates": [ -94.53635, 39.09508 ] } },
{ "type": "Feature", "properties": { "ID": "10514", "NAME": "Emery Forwarding-Kansas City-MO", "TYPE": "AIR", "MODE_TYPE": "AIR & TRUCK", "CITY": "Kansas City", "STATE": "MO", "FIPS": "29", "ZIP": "64153", "ZIP2": null, "PARCEL": 0.000000, "LATITUDE": 39.277940, "LONGITUDE": -94.673160, "GEOSOURCE": "GDT 2001 STREETS", "CREATEDATE": "2003\/04\/09", "CREATOR": "INDUS", "MODDATE": null, "ASSOC": null }, "geometry": { "type": "Point", "coordinates": [ -94.67316, 39.27794 ] } },
{ "type": "Feature", "properties": { "ID": "10515", "NAME": "Emery Ocean Services-Kansas City-MO", "TYPE": "AIR", "MODE_TYPE": "AIR & TRUCK", "CITY": "Kansas City", "STATE": "MO", "FIPS": "29", "ZIP": "64153", "ZIP2": null, "PARCEL": 0.000000, "LATITUDE": 39.277940, "LONGITUDE": -94.673160, "GEOSOURCE": "GDT 2001 STREETS", "CREATEDATE": "2003\/04\/09", "CREATOR": "INDUS", "MODDATE": null, "ASSOC": null }, "geometry": { "type": "Point", "coordinates": [ -94.67316, 39.27794 ] } },
{ "type": "Feature", "properties": { "ID": "10516", "NAME": "Landair Deliver Services-Springfield-MO", "TYPE": "AIR", "MODE_TYPE": "AIR & TRUCK", "CITY": "Springfield", "STATE": "MO", "FIPS": "29", "ZIP": "65803", "ZIP2": null, "PARCEL": 0.000000, "LATITUDE": 39.748140, "LONGITUDE": -94.602220, "GEOSOURCE": "GDT 2001 STREETS", "CREATEDATE": "2003\/04\/09", "CREATOR": "INDUS", "MODDATE": null, "ASSOC": null }, "geometry": { "type": "Point", "coordinates": [ -94.60222, 39.74814 ] } },
{ "type": "Feature", "properties": { "ID": "10517", "NAME": "Emery Forwarding-St. Louis-MO", "TYPE": "AIR", "MODE_TYPE": "AIR & TRUCK", "CITY": "St. Louis", "STATE": "MO", "FIPS": "29", "ZIP": "63134", "ZIP2": null, "PARCEL": 0.000000, "LATITUDE": 38.756020, "LONGITUDE": -90.348750, "GEOSOURCE": "GDT 2001 STREETS", "CREATEDATE": "2003\/04\/09", "CREATOR": "INDUS", "MODDATE": null, "ASSOC": null }, "geometry": { "type": "Point", "coordinates": [ -90.34875, 38.75602 ] } },
{ "type": "Feature", "properties": { "ID": "111", "NAME": "ST. LOUIS COUNTY PORT AUTHORITY", "TYPE": "PORT", "MODE_TYPE": "TRUCK - PORT - RAIL", "CITY": "CLAYTON", "STATE": "MO", "FIPS": "29", "ZIP": "63105", "ZIP2": null, "PARCEL": 0.000000, "LATITUDE": 38.528890, "LONGITUDE": -90.263330, "GEOSOURCE": "Port Series Report", "CREATEDATE": "2003\/04\/09", "CREATOR": "INDUS", "MODDATE": null, "ASSOC": "UP" }, "geometry": { "type": "Point", "coordinates": [ -90.263330006619981, 38.528889994689706 ] } },
{ "type": "Feature", "properties": { "ID": "113", "NAME": "CITY OF ST. LOUIS PORT AUTHORITY COMM", "TYPE": "PORT", "MODE_TYPE": "TRUCK - PORT - RAIL", "CITY": "SAINT LOUIS", "STATE": "MO", "FIPS": "29", "ZIP": "63101", "ZIP2": null, "PARCEL": 0.000000, "LATITUDE": 38.630020, "LONGITUDE": -90.194450, "GEOSOURCE": "GDT 2000 STREETS", "CREATEDATE": "2003\/04\/09", "CREATOR": "INDUS", "MODDATE": null, "ASSOC": "BNSF, CSXT, IC, NS, UP" }, "geometry": { "type": "Point", "coordinates": [ -90.19445, 38.63002 ] } },
{ "type": "Feature", "properties": { "ID": "122", "NAME": "HCI CHEMTECH DISTRUBITION INC.-CHESTERFIELD-MO", "TYPE": "RAIL", "MODE_TYPE": "RAIL & TRUCK", "CITY": "CHESTERFIELD", "STATE": "MO", "FIPS": "29", "ZIP": "63017", "ZIP2": "3431", "PARCEL": 0.000000, "LATITUDE": 38.650740, "LONGITUDE": -90.509800, "GEOSOURCE": "GDT 2000 STREETS", "CREATEDATE": "2003\/04\/09", "CREATOR": "INDUS", "MODDATE": null, "ASSOC": "BNSF, IC, KCS, UP" }, "geometry": { "type": "Point", "coordinates": [ -90.5098, 38.65074 ] } },
{ "type": "Feature", "properties": { "ID": "1303", "NAME": "SPRINGFIELD\/BRANSON AIRPORT", "TYPE": "AIR", "MODE_TYPE": "AIR & TRUCK", "CITY": "SPRINGFIELD", "STATE": "MO", "FIPS": "29", "ZIP": "65803", "ZIP2": null, "PARCEL": 0.000000, "LATITUDE": 37.241640, "LONGITUDE": -93.378550, "GEOSOURCE": "GDT 2000 STREETS", "CREATEDATE": "2003\/04\/09", "CREATOR": "INDUS", "MODDATE": null, "ASSOC": null }, "geometry": { "type": "Point", "coordinates": [ -93.37855, 37.24164 ] } },
{ "type": "Feature", "properties": { "ID": "1304", "NAME": "LAMBERT-ST. LOUIS INTERNATIONAL AIRPORT", "TYPE": "AIR", "MODE_TYPE": "AIR & TRUCK", "CITY": "ST. LOUIS", "STATE": "MO", "FIPS": "29", "ZIP": "63145", "ZIP2": null, "PARCEL": 0.000000, "LATITUDE": 38.742930, "LONGITUDE": -90.370170, "GEOSOURCE": "GDT 2000 STREETS", "CREATEDATE": "2003\/04\/09", "CREATOR": "INDUS", "MODDATE": null, "ASSOC": null }, "geometry": { "type": "Point", "coordinates": [ -90.37017, 38.74293 ] } },
{ "type": "Feature", "properties": { "ID": "1305", "NAME": "KANSAS CITY INTERNATIONAL AIRPORT", "TYPE": "AIR", "MODE_TYPE": "AIR & TRUCK", "CITY": "KANSAS CITY", "STATE": "MO", "FIPS": "29", "ZIP": "64153", "ZIP2": null, "PARCEL": 0.000000, "LATITUDE": 39.310790, "LONGITUDE": -94.715280, "GEOSOURCE": "GDT 2000 STREETS", "CREATEDATE": "2003\/04\/09", "CREATOR": "INDUS", "MODDATE": null, "ASSOC": null }, "geometry": { "type": "Point", "coordinates": [ -94.71528, 39.31079 ] } },
{ "type": "Feature", "properties": { "ID": "1396", "NAME": "NS-ST. LOUIS-MO", "TYPE": "RAIL", "MODE_TYPE": "RAIL & TRUCK", "CITY": "ST. LOUIS", "STATE": "MO", "FIPS": "29", "ZIP": "63147", "ZIP2": null, "PARCEL": 0.000000, "LATITUDE": 38.701860, "LONGITUDE": -90.221160, "GEOSOURCE": "GDT 2000 STREETS", "CREATEDATE": "2003\/04\/09", "CREATOR": "INDUS", "MODDATE": null, "ASSOC": null }, "geometry": { "type": "Point", "coordinates": [ -90.22116, 38.70186 ] } },
{ "type": "Feature", "properties": { "ID": "1406", "NAME": "NS-KANSAS CITY-MO", "TYPE": "RAIL", "MODE_TYPE": "RAIL & TRUCK", "CITY": "KANSAS CITY", "STATE": "MO", "FIPS": "29", "ZIP": "64161", "ZIP2": null, "PARCEL": 0.000000, "LATITUDE": 39.185270, "LONGITUDE": -94.424620, "GEOSOURCE": "GDT 2000 STREETS", "CREATEDATE": "2003\/04\/09", "CREATOR": "INDUS", "MODDATE": null, "ASSOC": null }, "geometry": { "type": "Point", "coordinates": [ -94.42462, 39.18527 ] } },
{ "type": "Feature", "properties": { "ID": "149", "NAME": "TRANSLOAD\/WAREHOUSE OPERATIONS-KANSAS CITY-MO", "TYPE": "RAIL", "MODE_TYPE": "RAIL & TRUCK", "CITY": "KANSAS CITY", "STATE": "MO", "FIPS": "29", "ZIP": "64129", "ZIP2": null, "PARCEL": 0.000000, "LATITUDE": 39.057380, "LONGITUDE": -94.503470, "GEOSOURCE": "GDT 2000 STREETS", "CREATEDATE": "2003\/04\/09", "CREATOR": "INDUS", "MODDATE": null, "ASSOC": "UP, KCS" }, "geometry": { "type": "Point", "coordinates": [ -94.50347, 39.05738 ] } },
{ "type": "Feature", "properties": { "ID": "1503", "NAME": "UP-KANSAS CITY-MO-4801 GARDN", "TYPE": "RAIL", "MODE_TYPE": "RAIL & TRUCK", "CITY": "KANSAS CITY", "STATE": "MO", "FIPS": "29", "ZIP": "64120", "ZIP2": null, "PARCEL": 0.000000, "LATITUDE": 39.127050, "LONGITUDE": -94.522020, "GEOSOURCE": "GDT 2000 STREETS", "CREATEDATE": "2003\/04\/09", "CREATOR": "INDUS", "MODDATE": null, "ASSOC": "UNION PACIFIC" }, "geometry": { "type": "Point", "coordinates": [ -94.52202, 39.12705 ] } },
{ "type": "Feature", "properties": { "ID": "152", "NAME": "NS INDEPENDENT BULK TRANSFER TERMINAL-KANSAS CITY-", "TYPE": "RAIL", "MODE_TYPE": "RAIL & TRUCK", "CITY": "KANSAS CITY", "STATE": "MO", "FIPS": "29", "ZIP": "64120", "ZIP2": null, "PARCEL": 0.000000, "LATITUDE": 39.143200, "LONGITUDE": -94.506860, "GEOSOURCE": "GDT 2000 STREETS", "CREATEDATE": "2003\/04\/09", "CREATOR": "INDUS", "MODDATE": null, "ASSOC": null }, "geometry": { "type": "Point", "coordinates": [ -94.50686, 39.1432 ] } },
{ "type": "Feature", "properties": { "ID": "1610", "NAME": "METRO PARK WAREHOUSES, INC.-KANSAS CITY-MO", "TYPE": "RAIL", "MODE_TYPE": "RAIL & TRUCK", "CITY": "KANSAS CITY", "STATE": "MO", "FIPS": "29", "ZIP": "64120", "ZIP2": null, "PARCEL": 0.000000, "LATITUDE": 39.139590, "LONGITUDE": -94.500960, "GEOSOURCE": "GDT 2000 STREETS", "CREATEDATE": "2003\/04\/09", "CREATOR": "INDUS", "MODDATE": null, "ASSOC": null }, "geometry": { "type": "Point", "coordinates": [ -94.50096, 39.13959 ] } },
{ "type": "Feature", "properties": { "ID": "1620", "NAME": "BNSF-KANSAS CITY-MO", "TYPE": "RAIL", "MODE_TYPE": "RAIL & TRUCK", "CITY": "KANSAS CITY", "STATE": "MO", "FIPS": "29", "ZIP": "64116", "ZIP2": null, "PARCEL": 0.000000, "LATITUDE": 39.137740, "LONGITUDE": -94.564970, "GEOSOURCE": "GDT 2000 STREETS", "CREATEDATE": "2003\/04\/09", "CREATOR": "INDUS", "MODDATE": null, "ASSOC": null }, "geometry": { "type": "Point", "coordinates": [ -94.56497, 39.13774 ] } },
{ "type": "Feature", "properties": { "ID": "1651", "NAME": "KANSAS CITY SOUTHERN RAILWAY-KANSAS CITY-MO-114 WE", "TYPE": "RAIL", "MODE_TYPE": "RAIL & TRUCK", "CITY": "KANSAS CITY", "STATE": "MO", "FIPS": "29", "ZIP": "64105", "ZIP2": "1804", "PARCEL": 0.000000, "LATITUDE": 39.100860, "LONGITUDE": -94.584530, "GEOSOURCE": "GDT 2000 STREETS", "CREATEDATE": "2003\/04\/09", "CREATOR": "INDUS", "MODDATE": null, "ASSOC": null }, "geometry": { "type": "Point", "coordinates": [ -94.58453, 39.10086 ] } },
{ "type": "Feature", "properties": { "ID": "1768", "NAME": "GATEWAY WESTERN RAILWAY-KANSAS CITY-MO", "TYPE": "RAIL", "MODE_TYPE": "RAIL & TRUCK", "CITY": "KANSAS CITY", "STATE": "MO", "FIPS": "29", "ZIP": "64120", "ZIP2": null, "PARCEL": 0.000000, "LATITUDE": 39.126480, "LONGITUDE": -94.516690, "GEOSOURCE": "GDT 2000 STREETS", "CREATEDATE": "2003\/04\/09", "CREATOR": "INDUS", "MODDATE": null, "ASSOC": null }, "geometry": { "type": "Point", "coordinates": [ -94.51669, 39.12648 ] } },
{ "type": "Feature", "properties": { "ID": "1874", "NAME": "I AND M RAIL LINK-KANSAS CITY-MO", "TYPE": "RAIL", "MODE_TYPE": "RAIL & TRUCK", "CITY": "KANSAS CITY", "STATE": "MO", "FIPS": "29", "ZIP": "64120", "ZIP2": null, "PARCEL": 0.000000, "LATITUDE": 39.126310, "LONGITUDE": -94.513520, "GEOSOURCE": "GDT 2000 STREETS", "CREATEDATE": "2003\/04\/09", "CREATOR": "INDUS", "MODDATE": null, "ASSOC": null }, "geometry": { "type": "Point", "coordinates": [ -94.51352, 39.12631 ] } },
{ "type": "Feature", "properties": { "ID": "1875", "NAME": "UP-KANSAS CITY-MO", "TYPE": "RAIL", "MODE_TYPE": "RAIL & TRUCK", "CITY": "KANSAS CITY", "STATE": "MO", "FIPS": "29", "ZIP": "64117", "ZIP2": null, "PARCEL": 0.000000, "LATITUDE": 39.156340, "LONGITUDE": -94.549170, "GEOSOURCE": "GDT 2000 STREETS", "CREATEDATE": "2003\/04\/09", "CREATOR": "INDUS", "MODDATE": null, "ASSOC": null }, "geometry": { "type": "Point", "coordinates": [ -94.54917, 39.15634 ] } },
{ "type": "Feature", "properties": { "ID": "2258", "NAME": "NEW MADRID COUNTY PORT AUTHORITY", "TYPE": "PORT", "MODE_TYPE": "TRUCK - PORT - RAIL", "CITY": "NEW MADRID", "STATE": "MO", "FIPS": "29", "ZIP": "63869", "ZIP2": null, "PARCEL": 0.000000, "LATITUDE": 36.589600, "LONGITUDE": -89.527080, "GEOSOURCE": "GDT 2001 STREETS", "CREATEDATE": "2003\/04\/09", "CREATOR": "INDUS", "MODDATE": null, "ASSOC": null }, "geometry": { "type": "Point", "coordinates": [ -89.52708, 36.5896 ] } },
{ "type": "Feature", "properties": { "ID": "2259", "NAME": "KANSAS CITY PORT AUTHORITY", "TYPE": "PORT", "MODE_TYPE": "TRUCK - PORT - RAIL", "CITY": "KANSAS CITY", "STATE": "MO", "FIPS": "29", "ZIP": "64106", "ZIP2": null, "PARCEL": 0.000000, "LATITUDE": 39.101190, "LONGITUDE": -94.583020, "GEOSOURCE": "GDT 2001 STREETS", "CREATEDATE": "2003\/04\/09", "CREATOR": "INDUS", "MODDATE": null, "ASSOC": null }, "geometry": { "type": "Point", "coordinates": [ -94.58302, 39.10119 ] } },
{ "type": "Feature", "properties": { "ID": "2263", "NAME": "ST. JOSEPH REGIONAL PORT AUTHORITY", "TYPE": "PORT", "MODE_TYPE": "TRUCK - PORT - RAIL", "CITY": "ST. JOSEPH", "STATE": "MO", "FIPS": "29", "ZIP": "64501", "ZIP2": null, "PARCEL": 0.000000, "LATITUDE": 39.768910, "LONGITUDE": -94.844320, "GEOSOURCE": "GDT 2001 STREETS", "CREATEDATE": "2003\/04\/09", "CREATOR": "INDUS", "MODDATE": null, "ASSOC": null }, "geometry": { "type": "Point", "coordinates": [ -94.84432, 39.76891 ] } },
{ "type": "Feature", "properties": { "ID": "2395", "NAME": "Jefferson City River Terminal Dock.", "TYPE": "INDEPENDENT PORT", "MODE_TYPE": "PORT & TRUCK", "CITY": "Jefferson City", "STATE": "MO", "FIPS": "29", "ZIP": null, "ZIP2": null, "PARCEL": 0.000000, "LATITUDE": 38.591310, "LONGITUDE": -92.171620, "GEOSOURCE": "GDT 2001 STREETS", "CREATEDATE": "2003\/04\/09", "CREATOR": "INDUS", "MODDATE": null, "ASSOC": null }, "geometry": { "type": "Point", "coordinates": [ -92.17162, 38.59131 ] } },
{ "type": "Feature", "properties": { "ID": "2396", "NAME": "Capital Sand Co. Jefferson City Lower Dock.", "TYPE": "INDEPENDENT PORT", "MODE_TYPE": "PORT & TRUCK", "CITY": "Jefferson City", "STATE": "MO", "FIPS": "29", "ZIP": null, "ZIP2": null, "PARCEL": 0.000000, "LATITUDE": 38.591310, "LONGITUDE": -92.171620, "GEOSOURCE": "GDT 2001 STREETS", "CREATEDATE": "2003\/04\/09", "CREATOR": "INDUS", "MODDATE": null, "ASSOC": null }, "geometry": { "type": "Point", "coordinates": [ -92.17162, 38.59131 ] } },
{ "type": "Feature", "properties": { "ID": "2397", "NAME": "Mid-Missouri Cooperative, Waverly Dock.", "TYPE": "INDEPENDENT PORT", "MODE_TYPE": "PORT & TRUCK", "CITY": "Waverly", "STATE": "MO", "FIPS": "29", "ZIP": "64096", "ZIP2": null, "PARCEL": 0.000000, "LATITUDE": 39.213610, "LONGITUDE": -93.514170, "GEOSOURCE": "Port Series Report", "CREATEDATE": "2003\/04\/09", "CREATOR": "INDUS", "MODDATE": null, "ASSOC": null }, "geometry": { "type": "Point", "coordinates": [ -93.514169997686807, 39.213610004663977 ] } },
{ "type": "Feature", "properties": { "ID": "2398", "NAME": "Bartlett and Co., Waverly Dock.", "TYPE": "INDEPENDENT PORT", "MODE_TYPE": "TRUCK - PORT - RAIL", "CITY": "Waverly", "STATE": "MO", "FIPS": "29", "ZIP": null, "ZIP2": null, "PARCEL": 0.000000, "LATITUDE": 39.214440, "LONGITUDE": -93.509170, "GEOSOURCE": "Port Series Report", "CREATEDATE": "2003\/04\/09", "CREATOR": "INDUS", "MODDATE": null, "ASSOC": null }, "geometry": { "type": "Point", "coordinates": [ -93.509169998743729, 39.214439999225164 ] } },
{ "type": "Feature", "properties": { "ID": "2411", "NAME": "Maczuk Industries New Haven Dock.", "TYPE": "INDEPENDENT PORT", "MODE_TYPE": "TRUCK - PORT - RAIL", "CITY": "New Haven", "STATE": "MO", "FIPS": "29", "ZIP": "63068", "ZIP2": "1030", "PARCEL": 0.000000, "LATITUDE": 38.616110, "LONGITUDE": -91.215280, "GEOSOURCE": "Port Series Report", "CREATEDATE": "2003\/04\/09", "CREATOR": "INDUS", "MODDATE": null, "ASSOC": null }, "geometry": { "type": "Point", "coordinates": [ -91.215280003611937, 38.616110003524732 ] } },
{ "type": "Feature", "properties": { "ID": "248", "NAME": "PETROLEUM FUEL AND TERMINAL CO.-SAINT LOUIS-MO", "TYPE": "RAIL", "MODE_TYPE": "RAIL & TRUCK", "CITY": "SAINT LOUIS", "STATE": "MO", "FIPS": "29", "ZIP": "63105", "ZIP2": null, "PARCEL": 0.000000, "LATITUDE": 38.652170, "LONGITUDE": -90.342750, "GEOSOURCE": "GDT 2000 STREETS", "CREATEDATE": "2003\/04\/09", "CREATOR": "INDUS", "MODDATE": null, "ASSOC": "NS" }, "geometry": { "type": "Point", "coordinates": [ -90.34275, 38.65217 ] } },
{ "type": "Feature", "properties": { "ID": "2719", "NAME": "Reload, Incorporated", "TYPE": "RAIL", "MODE_TYPE": "RAIL & TRUCK", "CITY": "Kansas City", "STATE": "MO", "FIPS": "29", "ZIP": "64120", "ZIP2": null, "PARCEL": 0.000000, "LATITUDE": 39.130840, "LONGITUDE": -94.525650, "GEOSOURCE": "GDT 2001 STREETS", "CREATEDATE": "2003\/04\/09", "CREATOR": "INDUS", "MODDATE": null, "ASSOC": "IMRL" }, "geometry": { "type": "Point", "coordinates": [ -94.52565, 39.13084 ] } },
{ "type": "Feature", "properties": { "ID": "2720", "NAME": "Siegert Transporation Services Inc.", "TYPE": "RAIL", "MODE_TYPE": "RAIL & TRUCK", "CITY": "Kansas City", "STATE": "MO", "FIPS": "29", "ZIP": "64129", "ZIP2": "1860", "PARCEL": 0.000000, "LATITUDE": 39.057460, "LONGITUDE": -94.503320, "GEOSOURCE": "GDT 2001 STREETS", "CREATEDATE": "2003\/04\/09", "CREATOR": "INDUS", "MODDATE": null, "ASSOC": "UP" }, "geometry": { "type": "Point", "coordinates": [ -94.50332, 39.05746 ] } },
{ "type": "Feature", "properties": { "ID": "2987", "NAME": "HCI Chemtech Industries", "TYPE": "RAIL", "MODE_TYPE": "RAIL & TRUCK", "CITY": "Kansas City", "STATE": "MO", "FIPS": "29", "ZIP": "64120", "ZIP2": null, "PARCEL": 0.000000, "LATITUDE": 39.140260, "LONGITUDE": -94.524000, "GEOSOURCE": "GDT 2001 STREETS", "CREATEDATE": "2003\/04\/09", "CREATOR": "INDUS", "MODDATE": null, "ASSOC": "NS" }, "geometry": { "type": "Point", "coordinates": [ -94.524, 39.14026 ] } },
{ "type": "Feature", "properties": { "ID": "2988", "NAME": "Interstate Underground Warehouse Industrial Park", "TYPE": "RAIL", "MODE_TYPE": "RAIL & TRUCK", "CITY": "Kansas City", "STATE": "MO", "FIPS": "29", "ZIP": "64129", "ZIP2": null, "PARCEL": 0.000000, "LATITUDE": 39.081570, "LONGITUDE": -94.488440, "GEOSOURCE": "GDT 2001 STREETS", "CREATEDATE": "2003\/04\/09", "CREATOR": "INDUS", "MODDATE": null, "ASSOC": "KCS" }, "geometry": { "type": "Point", "coordinates": [ -94.48844, 39.08157 ] } },
{ "type": "Feature", "properties": { "ID": "2989", "NAME": "Kansas City Cold Storage Corporation", "TYPE": "RAIL", "MODE_TYPE": "RAIL & TRUCK", "CITY": "Kansas City", "STATE": "MO", "FIPS": "29", "ZIP": "64106", "ZIP2": null, "PARCEL": 0.000000, "LATITUDE": 39.110840, "LONGITUDE": -94.578550, "GEOSOURCE": "GDT 2001 STREETS", "CREATEDATE": "2003\/04\/09", "CREATOR": "INDUS", "MODDATE": null, "ASSOC": "KCS" }, "geometry": { "type": "Point", "coordinates": [ -94.57855, 39.11084 ] } },
{ "type": "Feature", "properties": { "ID": "2991", "NAME": "Quality Warehouse Company, Incorporated", "TYPE": "RAIL", "MODE_TYPE": "RAIL & TRUCK", "CITY": "Kansas City", "STATE": "MO", "FIPS": "29", "ZIP": "64120", "ZIP2": null, "PARCEL": 0.000000, "LATITUDE": 39.135070, "LONGITUDE": -94.513980, "GEOSOURCE": "GDT 2001 STREETS", "CREATEDATE": "2003\/04\/09", "CREATOR": "INDUS", "MODDATE": null, "ASSOC": "KCS" }, "geometry": { "type": "Point", "coordinates": [ -94.51398, 39.13507 ] } },
{ "type": "Feature", "properties": { "ID": "2993", "NAME": "Metro Park Warehouse, Incorporated", "TYPE": "RAIL", "MODE_TYPE": "RAIL & TRUCK", "CITY": "North Kansas City", "STATE": "MO", "FIPS": "29", "ZIP": "64116", "ZIP2": null, "PARCEL": 0.000000, "LATITUDE": 39.138920, "LONGITUDE": -94.556490, "GEOSOURCE": "GDT 2001 STREETS", "CREATEDATE": "2003\/04\/09", "CREATOR": "INDUS", "MODDATE": null, "ASSOC": "BN" }, "geometry": { "type": "Point", "coordinates": [ -94.55649, 39.13892 ] } },
{ "type": "Feature", "properties": { "ID": "2994", "NAME": "Radial Warehouse", "TYPE": "RAIL", "MODE_TYPE": "RAIL & TRUCK", "CITY": "North Kansas City", "STATE": "MO", "FIPS": "29", "ZIP": "64116", "ZIP2": null, "PARCEL": 0.000000, "LATITUDE": 39.137490, "LONGITUDE": -94.554160, "GEOSOURCE": "GDT 2001 STREETS", "CREATEDATE": "2003\/04\/09", "CREATOR": "INDUS", "MODDATE": null, "ASSOC": "BN" }, "geometry": { "type": "Point", "coordinates": [ -94.55416, 39.13749 ] } },
{ "type": "Feature", "properties": { "ID": "2995", "NAME": "B & L Drayage and Warehouse Company, Incorporated", "TYPE": "RAIL", "MODE_TYPE": "RAIL & TRUCK", "CITY": "St. Louis", "STATE": "MO", "FIPS": "29", "ZIP": "63147", "ZIP2": null, "PARCEL": 0.000000, "LATITUDE": 38.685720, "LONGITUDE": -90.218120, "GEOSOURCE": "GDT 2001 STREETS", "CREATEDATE": "2003\/04\/09", "CREATOR": "INDUS", "MODDATE": null, "ASSOC": "TRRA" }, "geometry": { "type": "Point", "coordinates": [ -90.21812, 38.68572 ] } },
{ "type": "Feature", "properties": { "ID": "2996", "NAME": "Central Warehouse", "TYPE": "RAIL", "MODE_TYPE": "RAIL & TRUCK", "CITY": "St. Louis", "STATE": "MO", "FIPS": "29", "ZIP": "63139", "ZIP2": null, "PARCEL": 0.000000, "LATITUDE": 38.600180, "LONGITUDE": -90.274530, "GEOSOURCE": "GDT 2001 STREETS", "CREATEDATE": "2003\/04\/09", "CREATOR": "INDUS", "MODDATE": null, "ASSOC": "UP" }, "geometry": { "type": "Point", "coordinates": [ -90.27453, 38.60018 ] } },
{ "type": "Feature", "properties": { "ID": "2997", "NAME": "G. A. T. X. Logistics", "TYPE": "RAIL", "MODE_TYPE": "RAIL & TRUCK", "CITY": "St. Louis", "STATE": "MO", "FIPS": "29", "ZIP": "63134", "ZIP2": null, "PARCEL": 0.000000, "LATITUDE": 38.764000, "LONGITUDE": -90.349970, "GEOSOURCE": "GDT 2001 STREETS", "CREATEDATE": "2003\/04\/09", "CREATOR": "INDUS", "MODDATE": null, "ASSOC": "NS" }, "geometry": { "type": "Point", "coordinates": [ -90.34997, 38.764 ] } },
{ "type": "Feature", "properties": { "ID": "2998", "NAME": "Lanter Distribution Services", "TYPE": "RAIL", "MODE_TYPE": "RAIL & TRUCK", "CITY": "St. Louis", "STATE": "MO", "FIPS": "29", "ZIP": "63115", "ZIP2": null, "PARCEL": 0.000000, "LATITUDE": 38.680420, "LONGITUDE": -90.257410, "GEOSOURCE": "GDT 2001 STREETS", "CREATEDATE": "2003\/04\/09", "CREATOR": "INDUS", "MODDATE": null, "ASSOC": "TRRA" }, "geometry": { "type": "Point", "coordinates": [ -90.25741, 38.68042 ] } },
{ "type": "Feature", "properties": { "ID": "2999", "NAME": "Madison Warehouse Corporation", "TYPE": "RAIL", "MODE_TYPE": "RAIL & TRUCK", "CITY": "St. Louis", "STATE": "MO", "FIPS": "29", "ZIP": "63120", "ZIP2": null, "PARCEL": 0.000000, "LATITUDE": 38.696000, "LONGITUDE": -90.266820, "GEOSOURCE": "GDT 2001 STREETS", "CREATEDATE": "2003\/04\/09", "CREATOR": "INDUS", "MODDATE": null, "ASSOC": "TRRA" }, "geometry": { "type": "Point", "coordinates": [ -90.26682, 38.696 ] } },
{ "type": "Feature", "properties": { "ID": "3261", "NAME": "MFA Grain Operations-Aurora", "TYPE": "RAIL", "MODE_TYPE": "RAIL & TRUCK", "CITY": "Aurora", "STATE": "MO", "FIPS": "29", "ZIP": "65605", "ZIP2": null, "PARCEL": 0.000000, "LATITUDE": 36.975730, "LONGITUDE": -93.728850, "GEOSOURCE": "GDT 2001 STREETS", "CREATEDATE": "2003\/04\/09", "CREATOR": "INDUS", "MODDATE": null, "ASSOC": "BNSF" }, "geometry": { "type": "Point", "coordinates": [ -93.72885, 36.97573 ] } },
{ "type": "Feature", "properties": { "ID": "3262", "NAME": "MFA-Bernie", "TYPE": "RAIL", "MODE_TYPE": "RAIL & TRUCK", "CITY": "Bernie", "STATE": "MO", "FIPS": "29", "ZIP": "63822", "ZIP2": null, "PARCEL": 0.000000, "LATITUDE": 36.684990, "LONGITUDE": -89.967250, "GEOSOURCE": "GDT 2001 STREETS", "CREATEDATE": "2003\/04\/09", "CREATOR": "INDUS", "MODDATE": null, "ASSOC": "UP" }, "geometry": { "type": "Point", "coordinates": [ -89.96725, 36.68499 ] } },
{ "type": "Feature", "properties": { "ID": "3264", "NAME": "AG-Land, Inc.", "TYPE": "RAIL", "MODE_TYPE": "RAIL & TRUCK", "CITY": "Brookfield", "STATE": "MO", "FIPS": "29", "ZIP": "64628", "ZIP2": null, "PARCEL": 0.000000, "LATITUDE": 39.783880, "LONGITUDE": -93.072960, "GEOSOURCE": "GDT 2001 STREETS", "CREATEDATE": "2003\/04\/09", "CREATOR": "INDUS", "MODDATE": null, "ASSOC": "BNSF" }, "geometry": { "type": "Point", "coordinates": [ -93.07296, 39.78388 ] } },
{ "type": "Feature", "properties": { "ID": "3265", "NAME": "MFA Exchange", "TYPE": "RAIL", "MODE_TYPE": "RAIL & TRUCK", "CITY": "Brookfield", "STATE": "MO", "FIPS": "29", "ZIP": "64628", "ZIP2": null, "PARCEL": 0.000000, "LATITUDE": 39.783700, "LONGITUDE": -93.073580, "GEOSOURCE": "GDT 2001 STREETS", "CREATEDATE": "2003\/04\/09", "CREATOR": "INDUS", "MODDATE": null, "ASSOC": "BNSF" }, "geometry": { "type": "Point", "coordinates": [ -93.07358, 39.7837 ] } },
{ "type": "Feature", "properties": { "ID": "3267", "NAME": "Cape Grain Co.", "TYPE": "RAIL", "MODE_TYPE": "RAIL & TRUCK", "CITY": "Cape Girardeau", "STATE": "MO", "FIPS": "29", "ZIP": "63701", "ZIP2": null, "PARCEL": 0.000000, "LATITUDE": 37.280780, "LONGITUDE": -89.531200, "GEOSOURCE": "GDT 2001 STREETS", "CREATEDATE": "2003\/04\/09", "CREATOR": "INDUS", "MODDATE": null, "ASSOC": null }, "geometry": { "type": "Point", "coordinates": [ -89.5312, 37.28078 ] } },
{ "type": "Feature", "properties": { "ID": "3270", "NAME": "Farmers Elevator Co.", "TYPE": "RAIL", "MODE_TYPE": "RAIL & TRUCK", "CITY": "Clinton", "STATE": "MO", "FIPS": "29", "ZIP": "64735", "ZIP2": null, "PARCEL": 0.000000, "LATITUDE": 38.365570, "LONGITUDE": -93.777370, "GEOSOURCE": "GDT 2001 STREETS", "CREATEDATE": "2003\/04\/09", "CREATOR": "INDUS", "MODDATE": null, "ASSOC": "UP" }, "geometry": { "type": "Point", "coordinates": [ -93.77737, 38.36557 ] } },
{ "type": "Feature", "properties": { "ID": "3271", "NAME": "Monarch Feed Mills", "TYPE": "RAIL", "MODE_TYPE": "RAIL & TRUCK", "CITY": "Dexter", "STATE": "MO", "FIPS": "29", "ZIP": "63841", "ZIP2": null, "PARCEL": 0.000000, "LATITUDE": 36.790650, "LONGITUDE": -89.945440, "GEOSOURCE": "GDT 2001 STREETS", "CREATEDATE": "2003\/04\/09", "CREATOR": "INDUS", "MODDATE": null, "ASSOC": "UP" }, "geometry": { "type": "Point", "coordinates": [ -89.94544, 36.79065 ] } },
{ "type": "Feature", "properties": { "ID": "3273", "NAME": "MFA Agri Services", "TYPE": "RAIL", "MODE_TYPE": "RAIL & TRUCK", "CITY": "Elsberry", "STATE": "MO", "FIPS": "29", "ZIP": "63343", "ZIP2": null, "PARCEL": 0.000000, "LATITUDE": 39.170760, "LONGITUDE": -90.783070, "GEOSOURCE": "GDT 2001 STREETS", "CREATEDATE": "2003\/04\/09", "CREATOR": "INDUS", "MODDATE": null, "ASSOC": "BNSF" }, "geometry": { "type": "Point", "coordinates": [ -90.78307, 39.17076 ] } },
{ "type": "Feature", "properties": { "ID": "3274", "NAME": "Heiman Grain Inc.", "TYPE": "RAIL", "MODE_TYPE": "RAIL & TRUCK", "CITY": "Holden", "STATE": "MO", "FIPS": "29", "ZIP": "64040", "ZIP2": null, "PARCEL": 0.000000, "LATITUDE": 38.718200, "LONGITUDE": -93.987330, "GEOSOURCE": "GDT 2001 STREETS", "CREATEDATE": "2003\/04\/09", "CREATOR": "INDUS", "MODDATE": null, "ASSOC": "UP" }, "geometry": { "type": "Point", "coordinates": [ -93.98733, 38.7182 ] } },
{ "type": "Feature", "properties": { "ID": "3275", "NAME": "MFA Agri-Services-Jefferson City", "TYPE": "RAIL", "MODE_TYPE": "TRUCK - PORT - RAIL", "CITY": "Jefferson City", "STATE": "MO", "FIPS": "29", "ZIP": "65101", "ZIP2": null, "PARCEL": 0.000000, "LATITUDE": 38.553140, "LONGITUDE": -92.032200, "GEOSOURCE": "GDT 2001 STREETS", "CREATEDATE": "2003\/04\/09", "CREATOR": "INDUS", "MODDATE": null, "ASSOC": null }, "geometry": { "type": "Point", "coordinates": [ -92.0322, 38.55314 ] } },
{ "type": "Feature", "properties": { "ID": "3276", "NAME": "Bartlett & Co., Grain", "TYPE": "RAIL", "MODE_TYPE": "RAIL & TRUCK", "CITY": "Kansas City", "STATE": "MO", "FIPS": "29", "ZIP": "64120", "ZIP2": null, "PARCEL": 0.000000, "LATITUDE": 39.124420, "LONGITUDE": -94.513380, "GEOSOURCE": "GDT 2001 STREETS", "CREATEDATE": "2003\/04\/09", "CREATOR": "INDUS", "MODDATE": null, "ASSOC": "BNSF,KCS,SOO,UP" }, "geometry": { "type": "Point", "coordinates": [ -94.51338, 39.12442 ] } },
{ "type": "Feature", "properties": { "ID": "3279", "NAME": "Smoot Grain Co.", "TYPE": "RAIL", "MODE_TYPE": "RAIL & TRUCK", "CITY": "Kansas City", "STATE": "MO", "FIPS": "29", "ZIP": "64112", "ZIP2": null, "PARCEL": 0.000000, "LATITUDE": 39.039330, "LONGITUDE": -94.587090, "GEOSOURCE": "GDT 2001 STREETS", "CREATEDATE": "2003\/04\/09", "CREATOR": "INDUS", "MODDATE": null, "ASSOC": "UP" }, "geometry": { "type": "Point", "coordinates": [ -94.58709, 39.03933 ] } },
{ "type": "Feature", "properties": { "ID": "3280", "NAME": "Wolcott & Lincoln, LLC", "TYPE": "RAIL", "MODE_TYPE": "RAIL & TRUCK", "CITY": "Kansas City", "STATE": "MO", "FIPS": "29", "ZIP": "64112", "ZIP2": null, "PARCEL": 0.000000, "LATITUDE": 39.039330, "LONGITUDE": -94.587090, "GEOSOURCE": "GDT 2001 STREETS", "CREATEDATE": "2003\/04\/09", "CREATOR": "INDUS", "MODDATE": null, "ASSOC": "KCS" }, "geometry": { "type": "Point", "coordinates": [ -94.58709, 39.03933 ] } },
{ "type": "Feature", "properties": { "ID": "3281", "NAME": "Cargill, Inc.-Chouteau Elevator", "TYPE": "RAIL", "MODE_TYPE": "TRUCK - PORT - AIR", "CITY": "Kansas City", "STATE": "MO", "FIPS": "29", "ZIP": "6411", "ZIP2": null, "PARCEL": 0.000000, "LATITUDE": 39.151990, "LONGITUDE": -94.522140, "GEOSOURCE": "GDT 2001 STREETS", "CREATEDATE": "2003\/04\/09", "CREATOR": "INDUS", "MODDATE": null, "ASSOC": "BNSF,IC,KCS,SOO,UP" }, "geometry": { "type": "Point", "coordinates": [ -94.52214, 39.15199 ] } },
{ "type": "Feature", "properties": { "ID": "3284", "NAME": "MFA Exchange Elevator-Lexington", "TYPE": "RAIL", "MODE_TYPE": "TRUCK - PORT - RAIL", "CITY": "Lexington", "STATE": "MO", "FIPS": "29", "ZIP": "64067", "ZIP2": null, "PARCEL": 0.000000, "LATITUDE": 39.181210, "LONGITUDE": -93.867960, "GEOSOURCE": "GDT 2001 STREETS", "CREATEDATE": "2003\/04\/09", "CREATOR": "INDUS", "MODDATE": null, "ASSOC": "NS, UP" }, "geometry": { "type": "Point", "coordinates": [ -93.86796, 39.18121 ] } },
{ "type": "Feature", "properties": { "ID": "3288", "NAME": "Cole Grain Co.", "TYPE": "RAIL", "MODE_TYPE": "RAIL & TRUCK", "CITY": "Saint Louis", "STATE": "MO", "FIPS": "29", "ZIP": "63144", "ZIP2": null, "PARCEL": 0.000000, "LATITUDE": 38.627620, "LONGITUDE": -90.334970, "GEOSOURCE": "GDT 2001 STREETS", "CREATEDATE": "2003\/04\/09", "CREATOR": "INDUS", "MODDATE": null, "ASSOC": "UP" }, "geometry": { "type": "Point", "coordinates": [ -90.33497, 38.62762 ] } },
{ "type": "Feature", "properties": { "ID": "3291", "NAME": "Bartlett And Co., Grain", "TYPE": "RAIL", "MODE_TYPE": "RAIL & TRUCK", "CITY": "St. Joseph", "STATE": "MO", "FIPS": "29", "ZIP": "64502", "ZIP2": null, "PARCEL": 0.000000, "LATITUDE": 39.733710, "LONGITUDE": -94.856740, "GEOSOURCE": "GDT 2001 STREETS", "CREATEDATE": "2003\/04\/09", "CREATOR": "INDUS", "MODDATE": null, "ASSOC": "BNSF,UP" }, "geometry": { "type": "Point", "coordinates": [ -94.85674, 39.73371 ] } },
{ "type": "Feature", "properties": { "ID": "3292", "NAME": "Pillsbury Co.", "TYPE": "RAIL", "MODE_TYPE": "RAIL & TRUCK", "CITY": "St. Louis", "STATE": "MO", "FIPS": "29", "ZIP": "63115", "ZIP2": null, "PARCEL": 0.000000, "LATITUDE": 38.683490, "LONGITUDE": -90.238590, "GEOSOURCE": "GDT 2001 STREETS", "CREATEDATE": "2003\/04\/09", "CREATOR": "INDUS", "MODDATE": null, "ASSOC": "CSXT, TRRA" }, "geometry": { "type": "Point", "coordinates": [ -90.23859, 38.68349 ] } },
{ "type": "Feature", "properties": { "ID": "3293", "NAME": "ADM Milling", "TYPE": "RAIL", "MODE_TYPE": "RAIL & TRUCK", "CITY": "St. Louis", "STATE": "MO", "FIPS": "29", "ZIP": "63115", "ZIP2": null, "PARCEL": 0.000000, "LATITUDE": 38.683490, "LONGITUDE": -90.238590, "GEOSOURCE": "GDT 2001 STREETS", "CREATEDATE": "2003\/04\/09", "CREATOR": "INDUS", "MODDATE": null, "ASSOC": "UP" }, "geometry": { "type": "Point", "coordinates": [ -90.23859, 38.68349 ] } },
{ "type": "Feature", "properties": { "ID": "3295", "NAME": "ADM Growmark\/Div. Of ADM", "TYPE": "RAIL", "MODE_TYPE": "RAIL & TRUCK", "CITY": "St. Louis", "STATE": "MO", "FIPS": "29", "ZIP": "63673", "ZIP2": null, "PARCEL": 0.000000, "LATITUDE": 38.678980, "LONGITUDE": -90.192560, "GEOSOURCE": "GDT 2001 STREETS", "CREATEDATE": "2003\/04\/09", "CREATOR": "INDUS", "MODDATE": null, "ASSOC": "BNSF" }, "geometry": { "type": "Point", "coordinates": [ -90.19256, 38.67898 ] } },
{ "type": "Feature", "properties": { "ID": "3296", "NAME": "Weston Elevator", "TYPE": "RAIL", "MODE_TYPE": "RAIL & TRUCK", "CITY": "St. Louis", "STATE": "MO", "FIPS": "29", "ZIP": "64098", "ZIP2": null, "PARCEL": 0.000000, "LATITUDE": 39.402730, "LONGITUDE": -94.896800, "GEOSOURCE": "GDT 2001 STREETS", "CREATEDATE": "2003\/04\/09", "CREATOR": "INDUS", "MODDATE": null, "ASSOC": "UP" }, "geometry": { "type": "Point", "coordinates": [ -94.8968, 39.40273 ] } },
{ "type": "Feature", "properties": { "ID": "3297", "NAME": "Birds Point Terminal, Inc.", "TYPE": "RAIL", "MODE_TYPE": "RAIL & PORT", "CITY": "Wyatt", "STATE": "MO", "FIPS": "29", "ZIP": "63882", "ZIP2": null, "PARCEL": 0.000000, "LATITUDE": 36.909370, "LONGITUDE": -89.223300, "GEOSOURCE": "GDT 2001 STREETS", "CREATEDATE": "2003\/04\/09", "CREATOR": "INDUS", "MODDATE": null, "ASSOC": null }, "geometry": { "type": "Point", "coordinates": [ -89.2233, 36.90937 ] } },
{ "type": "Feature", "properties": { "ID": "355", "NAME": "BNSF-ST. LOUIS-MO", "TYPE": "RAIL", "MODE_TYPE": "RAIL & TRUCK", "CITY": "ST. LOUIS", "STATE": "MO", "FIPS": "29", "ZIP": "63139", "ZIP2": null, "PARCEL": 0.000000, "LATITUDE": 38.601530, "LONGITUDE": -90.315900, "GEOSOURCE": "GDT 2000 STREETS", "CREATEDATE": "2003\/04\/09", "CREATOR": "INDUS", "MODDATE": null, "ASSOC": null }, "geometry": { "type": "Point", "coordinates": [ -90.3159, 38.60153 ] } },
{ "type": "Feature", "properties": { "ID": "3568", "NAME": "K.C. Reload Center", "TYPE": "RAIL", "MODE_TYPE": "RAIL & TRUCK", "CITY": "Kansas City", "STATE": "MO", "FIPS": "29", "ZIP": "64125", "ZIP2": null, "PARCEL": 0.000000, "LATITUDE": 39.108380, "LONGITUDE": -94.504940, "GEOSOURCE": "GDT 2001 STREETS", "CREATEDATE": "2003\/04\/09", "CREATOR": "INDUS", "MODDATE": null, "ASSOC": "GWWR" }, "geometry": { "type": "Point", "coordinates": [ -94.50494, 39.10838 ] } },
{ "type": "Feature", "properties": { "ID": "3574", "NAME": "Wagner Industries, Inc.", "TYPE": "RAIL", "MODE_TYPE": "RAIL & TRUCK", "CITY": "North Kansas City", "STATE": "MO", "FIPS": "29", "ZIP": "64116", "ZIP2": null, "PARCEL": 0.000000, "LATITUDE": 39.130070, "LONGITUDE": -94.567380, "GEOSOURCE": "GDT 2001 STREETS", "CREATEDATE": "2003\/04\/09", "CREATOR": "INDUS", "MODDATE": null, "ASSOC": "BNSF,KCS,UP" }, "geometry": { "type": "Point", "coordinates": [ -94.56738, 39.13007 ] } },
{ "type": "Feature", "properties": { "ID": "3604", "NAME": "KANSAS CITY SOUTHERN-KANSAS CITY RAMP", "TYPE": "RAIL", "MODE_TYPE": "RAIL & TRUCK", "CITY": "KANSAS CITY", "STATE": "MO", "FIPS": "29", "ZIP": "64120", "ZIP2": null, "PARCEL": 0.000000, "LATITUDE": 39.126320, "LONGITUDE": -94.516640, "GEOSOURCE": "GDT 2001 STREETS", "CREATEDATE": "2003\/04\/09", "CREATOR": "INDUS", "MODDATE": null, "ASSOC": null }, "geometry": { "type": "Point", "coordinates": [ -94.51664, 39.12632 ] } },
{ "type": "Feature", "properties": { "ID": "3614", "NAME": "CSX INTERMODAL-KANSAS CITY-MO", "TYPE": "RAIL", "MODE_TYPE": "RAIL & TRUCK", "CITY": "KANSAS CITY", "STATE": "MO", "FIPS": "29", "ZIP": "64120", "ZIP2": null, "PARCEL": 0.000000, "LATITUDE": 39.126210, "LONGITUDE": -94.513300, "GEOSOURCE": "GDT 2001 STREETS", "CREATEDATE": "2003\/04\/09", "CREATOR": "INDUS", "MODDATE": null, "ASSOC": null }, "geometry": { "type": "Point", "coordinates": [ -94.5133, 39.12621 ] } },
{ "type": "Feature", "properties": { "ID": "370", "NAME": "HOWARD-COOPER REGIONAL PORT AUTHORITY", "TYPE": "PORT", "MODE_TYPE": "TRUCK - PORT - RAIL", "CITY": "BOONEVILLE", "STATE": "MO", "FIPS": "29", "ZIP": "65233", "ZIP2": null, "PARCEL": 0.000000, "LATITUDE": 38.972480, "LONGITUDE": -92.742860, "GEOSOURCE": "GDT 2000 STREETS", "CREATEDATE": "2003\/04\/09", "CREATOR": "INDUS", "MODDATE": null, "ASSOC": null }, "geometry": { "type": "Point", "coordinates": [ -92.74286, 38.97248 ] } },
{ "type": "Feature", "properties": { "ID": "3803", "NAME": "YELLOW-COLUMBIA-MO-TERMINAL", "TYPE": "TRUCK", "MODE_TYPE": "RAIL & TRUCK", "CITY": "Columbia", "STATE": "MO", "FIPS": "29", "ZIP": "65201", "ZIP2": null, "PARCEL": 0.000000, "LATITUDE": 38.953190, "LONGITUDE": -92.194610, "GEOSOURCE": "GDT 2001 STREETS", "CREATEDATE": "2003\/04\/09", "CREATOR": "INDUS", "MODDATE": null, "ASSOC": null }, "geometry": { "type": "Point", "coordinates": [ -92.19461, 38.95319 ] } },
{ "type": "Feature", "properties": { "ID": "3805", "NAME": "YELLOW-KANSAS CITY-MO TERMINAL", "TYPE": "TRUCK", "MODE_TYPE": "RAIL & TRUCK", "CITY": "Kansas City", "STATE": "MO", "FIPS": "29", "ZIP": "6412", "ZIP2": null, "PARCEL": 0.000000, "LATITUDE": 39.062710, "LONGITUDE": -94.484140, "GEOSOURCE": "GDT 2001 STREETS", "CREATEDATE": "2003\/04\/09", "CREATOR": "INDUS", "MODDATE": null, "ASSOC": null }, "geometry": { "type": "Point", "coordinates": [ -94.48414, 39.06271 ] } },
{ "type": "Feature", "properties": { "ID": "3807", "NAME": "YELLOW-SPRINGFIELD-MO TERMINAL", "TYPE": "TRUCK", "MODE_TYPE": "RAIL & TRUCK", "CITY": "Springfield", "STATE": "MO", "FIPS": "29", "ZIP": "6580", "ZIP2": null, "PARCEL": 0.000000, "LATITUDE": 37.239790, "LONGITUDE": -93.253700, "GEOSOURCE": "GDT 2001 STREETS", "CREATEDATE": "2003\/04\/09", "CREATOR": "INDUS", "MODDATE": null, "ASSOC": null }, "geometry": { "type": "Point", "coordinates": [ -93.2537, 37.23979 ] } },
{ "type": "Feature", "properties": { "ID": "3808", "NAME": "YELLOW-ST. JOSEPH-MO TERMINAL", "TYPE": "TRUCK", "MODE_TYPE": "RAIL & TRUCK", "CITY": "Saint Joseph", "STATE": "MO", "FIPS": "29", "ZIP": "6450", "ZIP2": null, "PARCEL": 0.000000, "LATITUDE": 39.733390, "LONGITUDE": -94.808200, "GEOSOURCE": "GDT 2001 STREETS", "CREATEDATE": "2003\/04\/09", "CREATOR": "INDUS", "MODDATE": null, "ASSOC": null }, "geometry": { "type": "Point", "coordinates": [ -94.8082, 39.73339 ] } },
{ "type": "Feature", "properties": { "ID": "3809", "NAME": "YELLOW-ST. LOUIS-MO TERMINAL", "TYPE": "TRUCK", "MODE_TYPE": "RAIL & TRUCK", "CITY": "Saint Louis", "STATE": "MO", "FIPS": "29", "ZIP": "631", "ZIP2": null, "PARCEL": 0.000000, "LATITUDE": 38.601730, "LONGITUDE": -90.203480, "GEOSOURCE": "GDT 2001 STREETS", "CREATEDATE": "2003\/04\/09", "CREATOR": "INDUS", "MODDATE": null, "ASSOC": null }, "geometry": { "type": "Point", "coordinates": [ -90.20348, 38.60173 ] } },
{ "type": "Feature", "properties": { "ID": "390", "NAME": "MILLER TRANSPORTERS, INC.-ST. LOUIS-MO", "TYPE": "TRUCK", "MODE_TYPE": "RAIL & TRUCK", "CITY": "ST. LOUIS", "STATE": "MO", "FIPS": "29", "ZIP": "63111", "ZIP2": null, "PARCEL": 0.000000, "LATITUDE": 38.550180, "LONGITUDE": -90.264720, "GEOSOURCE": "GDT 2000 STREETS", "CREATEDATE": "2003\/04\/09", "CREATOR": "INDUS", "MODDATE": null, "ASSOC": "INTERMODAL CONTRACTORS WITH VARIOUS RAIL CARRIERS" }, "geometry": { "type": "Point", "coordinates": [ -90.26472, 38.55018 ] } },
{ "type": "Feature", "properties": { "ID": "3976", "NAME": "J.B. HUNT-KANSAS CITY-MO", "TYPE": "TRUCK", "MODE_TYPE": "RAIL & TRUCK", "CITY": "KANSAS CITY", "STATE": "MO", "FIPS": "29", "ZIP": "64161", "ZIP2": null, "PARCEL": 0.000000, "LATITUDE": 39.165390, "LONGITUDE": -94.458130, "GEOSOURCE": "GDT 2001 STREETS", "CREATEDATE": "2003\/04\/09", "CREATOR": "INDUS", "MODDATE": null, "ASSOC": "BNSF" }, "geometry": { "type": "Point", "coordinates": [ -94.45813, 39.16539 ] } },
{ "type": "Feature", "properties": { "ID": "4025", "NAME": "USPS-JESSE DONALDSON AMF-KANSAS CITY-MO", "TYPE": "AIR", "MODE_TYPE": "AIR & TRUCK", "CITY": "KANSAS CITY", "STATE": "MO", "FIPS": "29", "ZIP": "64195", "ZIP2": null, "PARCEL": 0.000000, "LATITUDE": 39.302830, "LONGITUDE": -94.715810, "GEOSOURCE": "GDT 2001 STREETS", "CREATEDATE": "2003\/04\/09", "CREATOR": "INDUS", "MODDATE": null, "ASSOC": null }, "geometry": { "type": "Point", "coordinates": [ -94.71581, 39.30283 ] } },
{ "type": "Feature", "properties": { "ID": "4059", "NAME": "USPS-AMC-AMF-ST. LOUIS-MO", "TYPE": "AIR", "MODE_TYPE": "AIR & TRUCK", "CITY": "ST. LOUIS", "STATE": "MO", "FIPS": "29", "ZIP": "63134", "ZIP2": null, "PARCEL": 0.000000, "LATITUDE": 38.734350, "LONGITUDE": -90.350440, "GEOSOURCE": "GDT 2001 STREETS", "CREATEDATE": "2003\/04\/09", "CREATOR": "INDUS", "MODDATE": null, "ASSOC": null }, "geometry": { "type": "Point", "coordinates": [ -90.35044, 38.73435 ] } },
{ "type": "Feature", "properties": { "ID": "4073", "NAME": "USPS-PDC-PDF-KANSAS CITY-MO", "TYPE": "TRUCK", "MODE_TYPE": "TRUCK & TRUCK", "CITY": "KANSAS CITY", "STATE": "MO", "FIPS": "29", "ZIP": "64108", "ZIP2": null, "PARCEL": 0.000000, "LATITUDE": 39.083410, "LONGITUDE": -94.587490, "GEOSOURCE": "GDT 2001 STREETS", "CREATEDATE": "2003\/04\/09", "CREATOR": "INDUS", "MODDATE": null, "ASSOC": null }, "geometry": { "type": "Point", "coordinates": [ -94.58749, 39.08341 ] } },
{ "type": "Feature", "properties": { "ID": "4111", "NAME": "USPS-BMC-ST. LOUIS-MO", "TYPE": "TRUCK", "MODE_TYPE": "TRUCK & TRUCK", "CITY": "ST. LOUIS", "STATE": "MO", "FIPS": "29", "ZIP": "63042", "ZIP2": null, "PARCEL": 0.000000, "LATITUDE": 38.771110, "LONGITUDE": -90.384880, "GEOSOURCE": "GDT 2001 STREETS", "CREATEDATE": "2003\/04\/09", "CREATOR": "INDUS", "MODDATE": null, "ASSOC": null }, "geometry": { "type": "Point", "coordinates": [ -90.38488, 38.77111 ] } },
{ "type": "Feature", "properties": { "ID": "4175", "NAME": "USPS-P AND DC-P AND DF-CAPE GIRARDEAU-MO", "TYPE": "TRUCK", "MODE_TYPE": "TRUCK & TRUCK", "CITY": "CAPE GIRARDEAU", "STATE": "MO", "FIPS": "29", "ZIP": "63701", "ZIP2": null, "PARCEL": 0.000000, "LATITUDE": 37.290510, "LONGITUDE": -89.580640, "GEOSOURCE": "GDT 2001 STREETS", "CREATEDATE": "2003\/04\/09", "CREATOR": "INDUS", "MODDATE": null, "ASSOC": null }, "geometry": { "type": "Point", "coordinates": [ -89.58064, 37.29051 ] } },
{ "type": "Feature", "properties": { "ID": "4190", "NAME": "USPS-P AND DC-P AND DF-COLUMBIA-MO", "TYPE": "TRUCK", "MODE_TYPE": "TRUCK & TRUCK", "CITY": "COLUMBIA", "STATE": "MO", "FIPS": "29", "ZIP": "65299", "ZIP2": null, "PARCEL": 0.000000, "LATITUDE": 38.816970, "LONGITUDE": -92.223060, "GEOSOURCE": "GDT 2001 STREETS", "CREATEDATE": "2003\/04\/09", "CREATOR": "INDUS", "MODDATE": null, "ASSOC": null }, "geometry": { "type": "Point", "coordinates": [ -92.22306, 38.81697 ] } },
{ "type": "Feature", "properties": { "ID": "4272", "NAME": "USPS-P AND DC-P AND DF-SAINT LOUIS-MO", "TYPE": "TRUCK", "MODE_TYPE": "TRUCK & TRUCK", "CITY": "SAINT LOUIS", "STATE": "MO", "FIPS": "29", "ZIP": "63155", "ZIP2": null, "PARCEL": 0.000000, "LATITUDE": 38.628870, "LONGITUDE": -90.204520, "GEOSOURCE": "GDT 2001 STREETS", "CREATEDATE": "2003\/04\/09", "CREATOR": "INDUS", "MODDATE": null, "ASSOC": null }, "geometry": { "type": "Point", "coordinates": [ -90.20452, 38.62887 ] } },
{ "type": "Feature", "properties": { "ID": "429", "NAME": "BEELMAN RIVER TERMINALS, INC.-SAINT LOUIS-MO", "TYPE": "RAIL", "MODE_TYPE": "RAIL & TRUCK", "CITY": "SAINT LOUIS", "STATE": "MO", "FIPS": "29", "ZIP": "63102", "ZIP2": "1415", "PARCEL": 0.000000, "LATITUDE": 38.651810, "LONGITUDE": -90.184280, "GEOSOURCE": "GDT 2000 STREETS", "CREATEDATE": "2003\/04\/09", "CREATOR": "INDUS", "MODDATE": null, "ASSOC": "BNSF, NS TRRA" }, "geometry": { "type": "Point", "coordinates": [ -90.18428, 38.65181 ] } },
{ "type": "Feature", "properties": { "ID": "4297", "NAME": "USPS-P AND DC-P AND DF-SPINGFIELD-MO", "TYPE": "TRUCK", "MODE_TYPE": "TRUCK & TRUCK", "CITY": "SPRINGFIELD", "STATE": "MO", "FIPS": "29", "ZIP": "65804", "ZIP2": null, "PARCEL": 0.000000, "LATITUDE": 37.215180, "LONGITUDE": -93.295150, "GEOSOURCE": "GDT 2001 STREETS", "CREATEDATE": "2003\/04\/09", "CREATOR": "INDUS", "MODDATE": null, "ASSOC": null }, "geometry": { "type": "Point", "coordinates": [ -93.29515, 37.21518 ] } },
{ "type": "Feature", "properties": { "ID": "515", "NAME": "TRUCK TRANSPORT, INC.-ST. LOUIS-MO", "TYPE": "TRUCK", "MODE_TYPE": "RAIL & TRUCK", "CITY": "ST. LOUIS", "STATE": "MO", "FIPS": "29", "ZIP": "63026", "ZIP2": null, "PARCEL": 0.000000, "LATITUDE": 38.549080, "LONGITUDE": -90.443590, "GEOSOURCE": "GDT 2000 STREETS", "CREATEDATE": "2003\/04\/09", "CREATOR": "INDUS", "MODDATE": null, "ASSOC": "BNSF, CSXT, UP" }, "geometry": { "type": "Point", "coordinates": [ -90.44359, 38.54908 ] } },
{ "type": "Feature", "properties": { "ID": "681", "NAME": "SAVAGE INDUSTRIES, INC.-ST. LOUIS-MO", "TYPE": "RAIL", "MODE_TYPE": "RAIL & TRUCK", "CITY": "ST. LOUIS", "STATE": "MO", "FIPS": "29", "ZIP": "63118", "ZIP2": "3301", "PARCEL": 0.000000, "LATITUDE": 38.589340, "LONGITUDE": -90.211450, "GEOSOURCE": "GDT 2000 STREETS", "CREATEDATE": "2003\/04\/09", "CREATOR": "INDUS", "MODDATE": null, "ASSOC": "BNSF" }, "geometry": { "type": "Point", "coordinates": [ -90.21145, 38.58934 ] } },
{ "type": "Feature", "properties": { "ID": "682", "NAME": "MADISON WAREHOUSE CORPORATION-ST. LOUIS-MO", "TYPE": "RAIL", "MODE_TYPE": "RAIL & TRUCK", "CITY": "ST. LOUIS", "STATE": "MO", "FIPS": "29", "ZIP": "63120", "ZIP2": null, "PARCEL": 0.000000, "LATITUDE": 38.693450, "LONGITUDE": -90.263180, "GEOSOURCE": "GDT 2000 STREETS", "CREATEDATE": "2003\/04\/09", "CREATOR": "INDUS", "MODDATE": null, "ASSOC": "BNSF" }, "geometry": { "type": "Point", "coordinates": [ -90.26318, 38.69345 ] } },
{ "type": "Feature", "properties": { "ID": "683", "NAME": "LANGE-STEGMANN COMPANY-ST. LOIUS-MO", "TYPE": "RAIL", "MODE_TYPE": "RAIL & TRUCK", "CITY": "ST. LOIUS", "STATE": "MO", "FIPS": "29", "ZIP": "63147", "ZIP2": null, "PARCEL": 0.000000, "LATITUDE": 38.671060, "LONGITUDE": -90.189600, "GEOSOURCE": "GDT 2000 STREETS", "CREATEDATE": "2003\/04\/09", "CREATOR": "INDUS", "MODDATE": null, "ASSOC": "BNSF" }, "geometry": { "type": "Point", "coordinates": [ -90.1896, 38.67106 ] } },
{ "type": "Feature", "properties": { "ID": "684", "NAME": "ATCI WAREHOUSE-ST. LOUIS-MO", "TYPE": "RAIL", "MODE_TYPE": "RAIL & TRUCK", "CITY": "ST. LOUIS", "STATE": "MO", "FIPS": "29", "ZIP": "63038", "ZIP2": null, "PARCEL": 0.000000, "LATITUDE": 38.767870, "LONGITUDE": -90.208070, "GEOSOURCE": "GDT 2000 STREETS", "CREATEDATE": "2003\/04\/09", "CREATOR": "INDUS", "MODDATE": null, "ASSOC": "BNSF" }, "geometry": { "type": "Point", "coordinates": [ -90.20807, 38.76787 ] } },
{ "type": "Feature", "properties": { "ID": "685", "NAME": "HERZOG CONTRACTING CORP.-ST. JOSEPH-MO", "TYPE": "RAIL", "MODE_TYPE": "RAIL & TRUCK", "CITY": "ST. JOSEPH", "STATE": "MO", "FIPS": "29", "ZIP": "64507", "ZIP2": null, "PARCEL": 0.000000, "LATITUDE": 39.762660, "LONGITUDE": -94.767980, "GEOSOURCE": "GDT 2000 STREETS", "CREATEDATE": "2003\/04\/09", "CREATOR": "INDUS", "MODDATE": null, "ASSOC": "BNSF" }, "geometry": { "type": "Point", "coordinates": [ -94.76798, 39.76266 ] } },
{ "type": "Feature", "properties": { "ID": "686", "NAME": "WESTSIDE RELOAD-SPRINGFIELD-MO", "TYPE": "RAIL", "MODE_TYPE": "RAIL & TRUCK", "CITY": "SPRINGFIELD", "STATE": "MO", "FIPS": "29", "ZIP": "65803", "ZIP2": null, "PARCEL": 0.000000, "LATITUDE": 37.231560, "LONGITUDE": -93.308460, "GEOSOURCE": "GDT 2000 STREETS", "CREATEDATE": "2003\/04\/09", "CREATOR": "INDUS", "MODDATE": null, "ASSOC": "BNSF" }, "geometry": { "type": "Point", "coordinates": [ -93.30846, 37.23156 ] } },
{ "type": "Feature", "properties": { "ID": "687", "NAME": "QUEEN CITY WAREHOUSE CORP.-SPRINGFIELD-MO", "TYPE": "RAIL", "MODE_TYPE": "RAIL & TRUCK", "CITY": "SPRINGFIELD", "STATE": "MO", "FIPS": "29", "ZIP": "65802", "ZIP2": null, "PARCEL": 0.000000, "LATITUDE": 37.206570, "LONGITUDE": -93.248230, "GEOSOURCE": "GDT 2000 STREETS", "CREATEDATE": "2003\/04\/09", "CREATOR": "INDUS", "MODDATE": null, "ASSOC": "BNSF" }, "geometry": { "type": "Point", "coordinates": [ -93.24823, 37.20657 ] } },
{ "type": "Feature", "properties": { "ID": "688", "NAME": "NEWTON AND COMPANY-SIKESTON-MO", "TYPE": "RAIL", "MODE_TYPE": "RAIL & TRUCK", "CITY": "SIKESTON", "STATE": "MO", "FIPS": "29", "ZIP": "63801", "ZIP2": null, "PARCEL": 0.000000, "LATITUDE": 36.869940, "LONGITUDE": -89.596550, "GEOSOURCE": "GDT 2000 STREETS", "CREATEDATE": "2003\/04\/09", "CREATOR": "INDUS", "MODDATE": null, "ASSOC": "BNSF" }, "geometry": { "type": "Point", "coordinates": [ -89.59655, 36.86994 ] } },
{ "type": "Feature", "properties": { "ID": "689", "NAME": "RADIAL WAREHOUSE-N. KANSAS CITY-MO", "TYPE": "RAIL", "MODE_TYPE": "RAIL & TRUCK", "CITY": "N. KANSAS CITY", "STATE": "MO", "FIPS": "29", "ZIP": "64116", "ZIP2": null, "PARCEL": 0.000000, "LATITUDE": 39.130760, "LONGITUDE": -94.559300, "GEOSOURCE": "GDT 2000 STREETS", "CREATEDATE": "2003\/04\/09", "CREATOR": "INDUS", "MODDATE": null, "ASSOC": "BNSF" }, "geometry": { "type": "Point", "coordinates": [ -94.5593, 39.13076 ] } },
{ "type": "Feature", "properties": { "ID": "690", "NAME": "METRO PARK WAREHOUSES, INC.-N. KANSAS CITY-MO", "TYPE": "RAIL", "MODE_TYPE": "RAIL & TRUCK", "CITY": "N. KANSAS CITY", "STATE": "MO", "FIPS": "29", "ZIP": "64116", "ZIP2": null, "PARCEL": 0.000000, "LATITUDE": 39.134110, "LONGITUDE": -94.561430, "GEOSOURCE": "GDT 2000 STREETS", "CREATEDATE": "2003\/04\/09", "CREATOR": "INDUS", "MODDATE": null, "ASSOC": "BNSF" }, "geometry": { "type": "Point", "coordinates": [ -94.56143, 39.13411 ] } },
{ "type": "Feature", "properties": { "ID": "691", "NAME": "CONSOLIDATED TRANSFER AND WAREHOUSE CO., INC.-N. K", "TYPE": "RAIL", "MODE_TYPE": "RAIL & TRUCK", "CITY": "N. KANSAS CITY", "STATE": "MO", "FIPS": "29", "ZIP": "64116", "ZIP2": null, "PARCEL": 0.000000, "LATITUDE": 39.132560, "LONGITUDE": -94.556810, "GEOSOURCE": "GDT 2000 STREETS", "CREATEDATE": "2003\/04\/09", "CREATOR": "INDUS", "MODDATE": null, "ASSOC": "BNSF" }, "geometry": { "type": "Point", "coordinates": [ -94.55681, 39.13256 ] } },
{ "type": "Feature", "properties": { "ID": "692", "NAME": "STANDLEY CONSTRUCTION-LAMAR-MO", "TYPE": "RAIL", "MODE_TYPE": "RAIL & TRUCK", "CITY": "LAMAR", "STATE": "MO", "FIPS": "29", "ZIP": "64759", "ZIP2": null, "PARCEL": 0.000000, "LATITUDE": 37.484110, "LONGITUDE": -94.268260, "GEOSOURCE": "GDT 2000 STREETS", "CREATEDATE": "2003\/04\/09", "CREATOR": "INDUS", "MODDATE": null, "ASSOC": "BNSF" }, "geometry": { "type": "Point", "coordinates": [ -94.26826, 37.48411 ] } },
{ "type": "Feature", "properties": { "ID": "693", "NAME": "WAGNER INDUSTRIES, INC.-KANSAS CITY-MO-8300 NE UN", "TYPE": "RAIL", "MODE_TYPE": "RAIL & TRUCK", "CITY": "KANSAS CITY", "STATE": "MO", "FIPS": "29", "ZIP": "64161", "ZIP2": "9736", "PARCEL": 0.000000, "LATITUDE": 39.155570, "LONGITUDE": -94.492690, "GEOSOURCE": "GDT 2000 STREETS", "CREATEDATE": "2003\/04\/09", "CREATOR": "INDUS", "MODDATE": null, "ASSOC": "BNSF" }, "geometry": { "type": "Point", "coordinates": [ -94.49269, 39.15557 ] } },
{ "type": "Feature", "properties": { "ID": "694", "NAME": "WAGNER INDUSTRIES, INC.-KANSAS CITY-MO-1836 LEVEE", "TYPE": "RAIL", "MODE_TYPE": "RAIL & TRUCK", "CITY": "KANSAS CITY", "STATE": "MO", "FIPS": "29", "ZIP": "64120", "ZIP2": null, "PARCEL": 0.000000, "LATITUDE": 39.114980, "LONGITUDE": -94.579190, "GEOSOURCE": "GDT 2000 STREETS", "CREATEDATE": "2003\/04\/09", "CREATOR": "INDUS", "MODDATE": null, "ASSOC": "BNSF" }, "geometry": { "type": "Point", "coordinates": [ -94.57919, 39.11498 ] } },
{ "type": "Feature", "properties": { "ID": "695", "NAME": "TIGER WAREHOUSE AND DISTRIBUTION-KANSAS CITY-MO", "TYPE": "RAIL", "MODE_TYPE": "RAIL & TRUCK", "CITY": "KANSAS CITY", "STATE": "MO", "FIPS": "29", "ZIP": "64161", "ZIP2": null, "PARCEL": 0.000000, "LATITUDE": 39.156560, "LONGITUDE": -94.485370, "GEOSOURCE": "GDT 2000 STREETS", "CREATEDATE": "2003\/04\/09", "CREATOR": "INDUS", "MODDATE": null, "ASSOC": "BNSF" }, "geometry": { "type": "Point", "coordinates": [ -94.48537, 39.15656 ] } },
{ "type": "Feature", "properties": { "ID": "696", "NAME": "RELOAD CENTRAL, INC.-KANSAS CITY-MO", "TYPE": "RAIL", "MODE_TYPE": "RAIL & TRUCK", "CITY": "KANSAS CITY", "STATE": "MO", "FIPS": "29", "ZIP": "64125", "ZIP2": null, "PARCEL": 0.000000, "LATITUDE": 39.108400, "LONGITUDE": -94.505390, "GEOSOURCE": "GDT 2000 STREETS", "CREATEDATE": "2003\/04\/09", "CREATOR": "INDUS", "MODDATE": null, "ASSOC": "BNSF" }, "geometry": { "type": "Point", "coordinates": [ -94.50539, 39.1084 ] } },
{ "type": "Feature", "properties": { "ID": "697", "NAME": "PARIS BROTHERS-KANSAS CITY-MO", "TYPE": "RAIL", "MODE_TYPE": "RAIL & TRUCK", "CITY": "KANSAS CITY", "STATE": "MO", "FIPS": "29", "ZIP": "64161", "ZIP2": null, "PARCEL": 0.000000, "LATITUDE": 39.157250, "LONGITUDE": -94.480290, "GEOSOURCE": "GDT 2000 STREETS", "CREATEDATE": "2003\/04\/09", "CREATOR": "INDUS", "MODDATE": null, "ASSOC": "BNSF" }, "geometry": { "type": "Point", "coordinates": [ -94.48029, 39.15725 ] } },
{ "type": "Feature", "properties": { "ID": "698", "NAME": "MIDWEST RELOAD-KANSAS CITY-MO", "TYPE": "RAIL", "MODE_TYPE": "RAIL & TRUCK", "CITY": "KANSAS CITY", "STATE": "MO", "FIPS": "29", "ZIP": "64108", "ZIP2": null, "PARCEL": 0.000000, "LATITUDE": 39.090490, "LONGITUDE": -94.601320, "GEOSOURCE": "GDT 2000 STREETS", "CREATEDATE": "2003\/04\/09", "CREATOR": "INDUS", "MODDATE": null, "ASSOC": "BNSF" }, "geometry": { "type": "Point", "coordinates": [ -94.60132, 39.09049 ] } },
{ "type": "Feature", "properties": { "ID": "699", "NAME": "LIQUID TRANSPORT CORP.-KANSAS CITY-MO", "TYPE": "RAIL", "MODE_TYPE": "RAIL & TRUCK", "CITY": "KANSAS CITY", "STATE": "MO", "FIPS": "29", "ZIP": "64105", "ZIP2": null, "PARCEL": 0.000000, "LATITUDE": 39.109240, "LONGITUDE": -94.586510, "GEOSOURCE": "GDT 2000 STREETS", "CREATEDATE": "2003\/04\/09", "CREATOR": "INDUS", "MODDATE": null, "ASSOC": "BNSF" }, "geometry": { "type": "Point", "coordinates": [ -94.58651, 39.10924 ] } },
{ "type": "Feature", "properties": { "ID": "700", "NAME": "KC RELOAD CENTER, INC.-KANSAS CITY-MO", "TYPE": "RAIL", "MODE_TYPE": "RAIL & TRUCK", "CITY": "KANSAS CITY", "STATE": "MO", "FIPS": "29", "ZIP": "64123", "ZIP2": null, "PARCEL": 0.000000, "LATITUDE": 39.112040, "LONGITUDE": -94.503730, "GEOSOURCE": "GDT 2000 STREETS", "CREATEDATE": "2003\/04\/09", "CREATOR": "INDUS", "MODDATE": null, "ASSOC": "BNSF" }, "geometry": { "type": "Point", "coordinates": [ -94.50373, 39.11204 ] } },
{ "type": "Feature", "properties": { "ID": "701", "NAME": "CENTRAL MISSOURI RELOAD, INC.-KANSAS CITY-MO", "TYPE": "RAIL", "MODE_TYPE": "RAIL & TRUCK", "CITY": "KANSAS CITY", "STATE": "MO", "FIPS": "29", "ZIP": "64127", "ZIP2": null, "PARCEL": 0.000000, "LATITUDE": 39.095080, "LONGITUDE": -94.536350, "GEOSOURCE": "GDT 2000 STREETS", "CREATEDATE": "2003\/04\/09", "CREATOR": "INDUS", "MODDATE": null, "ASSOC": "BNSF" }, "geometry": { "type": "Point", "coordinates": [ -94.53635, 39.09508 ] } },
{ "type": "Feature", "properties": { "ID": "702", "NAME": "STANDARD TRANSPORTATION SERVICES-JOPLIN-MN-3503 EN", "TYPE": "RAIL", "MODE_TYPE": "RAIL & TRUCK", "CITY": "JOPLIN", "STATE": "MO", "FIPS": "29", "ZIP": "64801", "ZIP2": "9193", "PARCEL": 0.000000, "LATITUDE": 37.120210, "LONGITUDE": -94.473320, "GEOSOURCE": "GDT 2000 STREETS", "CREATEDATE": "2003\/04\/09", "CREATOR": "INDUS", "MODDATE": null, "ASSOC": "BNSF" }, "geometry": { "type": "Point", "coordinates": [ -94.47332, 37.12021 ] } },
{ "type": "Feature", "properties": { "ID": "967", "NAME": "ST. LOUIS INTERNATIONAL AIRPORT", "TYPE": "AIR", "MODE_TYPE": "AIR & TRUCK", "CITY": "ST-LOUIS", "STATE": "MO", "FIPS": "29", "ZIP": "63134", "ZIP2": "2044", "PARCEL": 0.000000, "LATITUDE": 38.736360, "LONGITUDE": -90.354440, "GEOSOURCE": "GDT 2000 STREETS", "CREATEDATE": "2003\/04\/09", "CREATOR": "INDUS", "MODDATE": null, "ASSOC": null }, "geometry": { "type": "Point", "coordinates": [ -90.35444, 38.73636 ] } }
]
}
