{
"type": "FeatureCollection",
                                                                                
"features": [
{ "type": "Feature", "properties": { "OBJECTID": 1, "STNCODE": "HUN", "STNNAME": "Huntington, West Virginia", "ADDRESS1": "1050 8th Avenue", "ADDRESS2": null, "CITY": "Huntington", "STATE": "WV", "ZIP": "25701", "STNTYPE": "RAIL", "STFIPS": "54" }, "geometry": { "type": "Point", "coordinates": [ -82.44084200005824, 38.415404999740986 ] } },
{ "type": "Feature", "properties": { "OBJECTID": 2, "STNCODE": "HUT", "STNNAME": "Hutchinson, Kansas", "ADDRESS1": "North Walnut St & East 3rd Ave", "ADDRESS2": null, "CITY": "Hutchinson", "STATE": "KS", "ZIP": "67501", "STNTYPE": "RAIL", "STFIPS": "20" }, "geometry": { "type": "Point", "coordinates": [ -97.930060999815225, 38.055858999992893 ] } },
{ "type": "Feature", "properties": { "OBJECTID": 3, "STNCODE": "HWC", "STNNAME": "Howard City, Michigan", "ADDRESS1": "130 North Ensley St.", "ADDRESS2": "Sunoco Station", "CITY": "Howard City", "STATE": "MI", "ZIP": "49323", "STNTYPE": "BUS", "STFIPS": "26" }, "geometry": { "type": "Point", "coordinates": [ -85.469924999738907, 43.395728999693631 ] } },
{ "type": "Feature", "properties": { "OBJECTID": 4, "STNCODE": "IDO", "STNNAME": "Indio, California", "ADDRESS1": "NE Corner Hywy-111 and Monroe Street", "ADDRESS2": "Sunline Bus Stop", "CITY": "Indio", "STATE": "CA", "ZIP": "92201-3917", "STNTYPE": "BUS", "STFIPS": "06" }, "geometry": { "type": "Point", "coordinates": [ -116.233170000495079, 33.714751999705072 ] } },
{ "type": "Feature", "properties": { "OBJECTID": 5, "STNCODE": "IDP", "STNNAME": "Independence, Missouri", "ADDRESS1": "600 South Grand Ave.", "ADDRESS2": null, "CITY": "Independence", "STATE": "MO", "ZIP": "64050-3564", "STNTYPE": "RAIL", "STFIPS": "29" }, "geometry": { "type": "Point", "coordinates": [ -94.429297999503035, 39.086975000296093 ] } },
{ "type": "Feature", "properties": { "OBJECTID": 6, "STNCODE": "IND", "STNNAME": "Indianapolis, Indiana", "ADDRESS1": "350 South Illinois Street", "ADDRESS2": null, "CITY": "Indianapolis", "STATE": "IN", "ZIP": "46225-1198", "STNTYPE": "RAIL", "STFIPS": "18" }, "geometry": { "type": "Point", "coordinates": [ -86.160309000060295, 39.762154000007172 ] } },
{ "type": "Feature", "properties": { "OBJECTID": 7, "STNCODE": "IRV", "STNNAME": "Irvine, California", "ADDRESS1": "15215 Barranca Parkway", "ADDRESS2": "Irvine Transportation Center", "CITY": "Irvine", "STATE": "CA", "ZIP": "92618", "STNTYPE": "RAIL", "STFIPS": "06" }, "geometry": { "type": "Point", "coordinates": [ -117.759192999657159, 33.674767000296868 ] } },
{ "type": "Feature", "properties": { "OBJECTID": 8, "STNCODE": "JAN", "STNNAME": "Jackson, Mississippi", "ADDRESS1": "300 W. Capital Street", "ADDRESS2": null, "CITY": "Jackson", "STATE": "MS", "ZIP": "39201", "STNTYPE": "RAIL", "STFIPS": "28" }, "geometry": { "type": "Point", "coordinates": [ -90.190598000297427, 32.300643999421084 ] } },
{ "type": "Feature", "properties": { "OBJECTID": 9, "STNCODE": "JAX", "STNNAME": "Jacksonville, Florida", "ADDRESS1": "3570 Clifford Lane", "ADDRESS2": null, "CITY": "Jacksonville", "STATE": "FL", "ZIP": "32209-2123", "STNTYPE": "RAIL", "STFIPS": "12" }, "geometry": { "type": "Point", "coordinates": [ -81.724602000781658, 30.366576999728807 ] } },
{ "type": "Feature", "properties": { "OBJECTID": 10, "STNCODE": "JEF", "STNNAME": "Jefferson City, Missouri", "ADDRESS1": "101 Jefferson Street", "ADDRESS2": null, "CITY": "Jefferson City", "STATE": "MO", "ZIP": "65101", "STNTYPE": "RAIL", "STFIPS": "29" }, "geometry": { "type": "Point", "coordinates": [ -92.170380000136845, 38.579052000149716 ] } },
{ "type": "Feature", "properties": { "OBJECTID": 12, "STNCODE": "JMN", "STNNAME": "Jamestown, New York", "ADDRESS1": "111 West Third Street", "ADDRESS2": "U.S. News Agency", "CITY": "Jamestown", "STATE": "NY", "ZIP": "14701", "STNTYPE": "BUS", "STFIPS": "36" }, "geometry": { "type": "Point", "coordinates": [ -79.240096999976515, 42.096424000167531 ] } },
{ "type": "Feature", "properties": { "OBJECTID": 13, "STNCODE": "JOL", "STNNAME": "Joliet, Illinois", "ADDRESS1": "50 East Jefferson Street", "ADDRESS2": "Union Station", "CITY": "Joliet", "STATE": "IL", "ZIP": "60431", "STNTYPE": "RAIL", "STFIPS": "17" }, "geometry": { "type": "Point", "coordinates": [ -88.079140000410632, 41.524876000427128 ] } },
{ "type": "Feature", "properties": { "OBJECTID": 14, "STNCODE": "JSP", "STNNAME": "Jesup, Georgia", "ADDRESS1": "176 Northwest Broad Street", "ADDRESS2": null, "CITY": "Jesup", "STATE": "GA", "ZIP": "31545-1300", "STNTYPE": "RAIL", "STFIPS": "13" }, "geometry": { "type": "Point", "coordinates": [ -81.882201999322774, 31.605908999900464 ] } },
{ "type": "Feature", "properties": { "OBJECTID": 15, "STNCODE": "JST", "STNNAME": "Johnstown, Pennsylvania", "ADDRESS1": "47 Walnut Street", "ADDRESS2": null, "CITY": "Johnstown", "STATE": "PA", "ZIP": "15901", "STNTYPE": "RAIL", "STFIPS": "42" }, "geometry": { "type": "Point", "coordinates": [ -78.9224240003673, 40.330101000061177 ] } },
{ "type": "Feature", "properties": { "OBJECTID": 16, "STNCODE": "JVL", "STNNAME": "Janesville, Wisconsin", "ADDRESS1": "3120 North Pontiac Drive", "ADDRESS2": "Bus Station", "CITY": "Janesville", "STATE": "WI", "ZIP": "53545-0373", "STNTYPE": "BUS", "STFIPS": "55" }, "geometry": { "type": "Point", "coordinates": [ -88.996925000388444, 42.720356000029426 ] } },
{ "type": "Feature", "properties": { "OBJECTID": 17, "STNCODE": "JXN", "STNNAME": "Jackson, Michigan", "ADDRESS1": "501 E. Michigan Ave.", "ADDRESS2": null, "CITY": "Jackson", "STATE": "MI", "ZIP": "49201", "STNTYPE": "RAIL", "STFIPS": "26" }, "geometry": { "type": "Point", "coordinates": [ -84.400291000229458, 42.248051000253497 ] } },
{ "type": "Feature", "properties": { "OBJECTID": 18, "STNCODE": "KAL", "STNNAME": "Kalamazoo, Michigan", "ADDRESS1": "459 North Burdick St.", "ADDRESS2": null, "CITY": "Kalamazoo", "STATE": "MI", "ZIP": "49007-3669", "STNTYPE": "RAIL", "STFIPS": "26" }, "geometry": { "type": "Point", "coordinates": [ -85.583588000086081, 42.295451999909915 ] } },
{ "type": "Feature", "properties": { "OBJECTID": 19, "STNCODE": "KAN", "STNNAME": "Kannapolis, North Carolina", "ADDRESS1": "201 South Main St.", "ADDRESS2": null, "CITY": "Kannapolis", "STATE": "NC", "ZIP": "28081", "STNTYPE": "RAIL", "STFIPS": "37" }, "geometry": { "type": "Point", "coordinates": [ -80.621810999278182, 35.501266000125838 ] } },
{ "type": "Feature", "properties": { "OBJECTID": 20, "STNCODE": "KCY", "STNNAME": "Kansas City, Missouri", "ADDRESS1": "30 West Pershing Rd.", "ADDRESS2": "Union Station, Suite 160", "CITY": "Kansas City", "STATE": "MO", "ZIP": "64108-2410", "STNTYPE": "RAIL", "STFIPS": "29" }, "geometry": { "type": "Point", "coordinates": [ -94.583946000407536, 39.086151000068639 ] } },
{ "type": "Feature", "properties": { "OBJECTID": 21, "STNCODE": "KEE", "STNNAME": "Kewanee, Illinois", "ADDRESS1": "Loomis and North Tremont Sts.", "ADDRESS2": null, "CITY": "Kewanee", "STATE": "IL", "ZIP": "61443", "STNTYPE": "RAIL", "STFIPS": "17" }, "geometry": { "type": "Point", "coordinates": [ -89.927421999325759, 41.245625000093753 ] } },
{ "type": "Feature", "properties": { "OBJECTID": 22, "STNCODE": "KEL", "STNNAME": "Kelso-Longview, Washington", "ADDRESS1": "501 South First Street", "ADDRESS2": null, "CITY": "Kelso", "STATE": "WA", "ZIP": "98626", "STNTYPE": "RAIL", "STFIPS": "53" }, "geometry": { "type": "Point", "coordinates": [ -122.911766000100783, 46.142623999398097 ] } },
{ "type": "Feature", "properties": { "OBJECTID": 23, "STNCODE": "KFS", "STNNAME": "Klamath Falls, Oregon", "ADDRESS1": "1600 Oak Ave.", "ADDRESS2": null, "CITY": "Klamath Falls", "STATE": "OR", "ZIP": "97601-3286", "STNTYPE": "RAIL", "STFIPS": "41" }, "geometry": { "type": "Point", "coordinates": [ -121.770920000057913, 42.22587999946245 ] } },
{ "type": "Feature", "properties": { "OBJECTID": 24, "STNCODE": "KGC", "STNNAME": "King City, California", "ADDRESS1": "1350 Broadway Circle", "ADDRESS2": "MacDonalds Restaurant - south side parking lot", "CITY": "King City", "STATE": "CA", "ZIP": "93930-3446", "STNTYPE": "BUS", "STFIPS": "06" }, "geometry": { "type": "Point", "coordinates": [ -121.128699999505329, 36.203509999686787 ] } },
{ "type": "Feature", "properties": { "OBJECTID": 25, "STNCODE": "KGG", "STNNAME": "Kingman (Greyhound), Arizona", "ADDRESS1": "3264 E. Andy Devine Av.", "ADDRESS2": "Greyhound Station", "CITY": "Kingman", "STATE": "AZ", "ZIP": "86401-3724", "STNTYPE": "BUS", "STFIPS": "04" }, "geometry": { "type": "Point", "coordinates": [ -114.008086984926365, 35.220316350419296 ] } },
{ "type": "Feature", "properties": { "OBJECTID": 26, "STNCODE": "KGS", "STNNAME": "Kingsley, Michigan", "ADDRESS1": "119 E. Main St.", "ADDRESS2": "Kingsley Laundromat", "CITY": "Kingsley", "STATE": "MI", "ZIP": "49649", "STNTYPE": "BUS", "STFIPS": "26" }, "geometry": { "type": "Point", "coordinates": [ -85.536493332001612, 44.5845329144625 ] } },
{ "type": "Feature", "properties": { "OBJECTID": 27, "STNCODE": "KIL", "STNNAME": "Killeen, Texas", "ADDRESS1": "200 East Avenue C", "ADDRESS2": "Arrow Trailways Bus Station", "CITY": "Killeen", "STATE": "TX", "ZIP": "76541-5231", "STNTYPE": "BUS", "STFIPS": "48" }, "geometry": { "type": "Point", "coordinates": [ -97.729485000632224, 31.121298000102684 ] } },
{ "type": "Feature", "properties": { "OBJECTID": 28, "STNCODE": "KIN", "STNNAME": "West Kingston, Rhode Island", "ADDRESS1": "1 Railroad Avenue", "ADDRESS2": null, "CITY": "West Kingston", "STATE": "RI", "ZIP": "02892-1508", "STNTYPE": "RAIL", "STFIPS": "44" }, "geometry": { "type": "Point", "coordinates": [ -71.562285999898961, 41.48394000033079 ] } },
{ "type": "Feature", "properties": { "OBJECTID": 29, "STNCODE": "KIS", "STNNAME": "Kissimmee, Florida", "ADDRESS1": "111 East Dakin Ave.", "ADDRESS2": null, "CITY": "Kissimmee", "STATE": "FL", "ZIP": "34741-5723", "STNTYPE": "RAIL", "STFIPS": "12" }, "geometry": { "type": "Point", "coordinates": [ -81.40512176945407, 28.29343249411437 ] } },
{ "type": "Feature", "properties": { "OBJECTID": 30, "STNCODE": "KKI", "STNNAME": "Kankakee, Illinois", "ADDRESS1": "199 South East Ave.", "ADDRESS2": null, "CITY": "Kankakee", "STATE": "IL", "ZIP": "60901-3834", "STNTYPE": "RAIL", "STFIPS": "17" }, "geometry": { "type": "Point", "coordinates": [ -87.86576099987019, 41.119132999888109 ] } },
{ "type": "Feature", "properties": { "OBJECTID": 32, "STNCODE": "KNG", "STNNAME": "Kingman, Arizona", "ADDRESS1": "106 4th Street", "ADDRESS2": null, "CITY": "Kingman", "STATE": "AZ", "ZIP": "86401", "STNTYPE": "RAIL", "STFIPS": "04" }, "geometry": { "type": "Point", "coordinates": [ -114.052070999676857, 35.188357999921834 ] } },
{ "type": "Feature", "properties": { "OBJECTID": 33, "STNCODE": "CNH", "STNNAME": "Concord, New Hampshire", "ADDRESS1": "30 Stickney Ave.", "ADDRESS2": "Concord Transportation Center", "CITY": "Concord", "STATE": "NH", "ZIP": "03301-5064", "STNTYPE": "BUS", "STFIPS": "33" }, "geometry": { "type": "Point", "coordinates": [ -71.534327631514941, 43.211433424812753 ] } },
{ "type": "Feature", "properties": { "OBJECTID": 34, "STNCODE": "COC", "STNNAME": "Corcoran, California", "ADDRESS1": "1099 Otis Ave.", "ADDRESS2": "Otis and Whitney Aves.", "CITY": "Corcoran", "STATE": "CA", "ZIP": "93212-2445", "STNTYPE": "RAIL", "STFIPS": "06" }, "geometry": { "type": "Point", "coordinates": [ -119.556502999713643, 36.098194000252988 ] } },
{ "type": "Feature", "properties": { "OBJECTID": 35, "STNCODE": "COI", "STNNAME": "Connersville, Indiana", "ADDRESS1": "1012 Eastern Avenue", "ADDRESS2": null, "CITY": "Connersville", "STATE": "IN", "ZIP": "47331", "STNTYPE": "RAIL", "STFIPS": "18" }, "geometry": { "type": "Point", "coordinates": [ -85.133559999694171, 39.646464999759985 ] } },
{ "type": "Feature", "properties": { "OBJECTID": 36, "STNCODE": "COS", "STNNAME": "Colorado Springs, Colorado", "ADDRESS1": "120 South Weber Street", "ADDRESS2": null, "CITY": "Colorado Springs", "STATE": "CO", "ZIP": "80903", "STNTYPE": "BUS", "STFIPS": "08" }, "geometry": { "type": "Point", "coordinates": [ -104.819199000433514, 38.831923999892751 ] } },
{ "type": "Feature", "properties": { "OBJECTID": 37, "STNCODE": "COT", "STNNAME": "Coatesville, Pennsylvania", "ADDRESS1": "Third Ave. and Fleetwood St.", "ADDRESS2": null, "CITY": "Coatesville", "STATE": "PA", "ZIP": "19320", "STNTYPE": "RAIL", "STFIPS": "42" }, "geometry": { "type": "Point", "coordinates": [ -75.82066299999741, 39.985618999817063 ] } },
{ "type": "Feature", "properties": { "OBJECTID": 38, "STNCODE": "COV", "STNNAME": "Connellsville, Pennsylvania", "ADDRESS1": "North Water Street and West Peach Street", "ADDRESS2": null, "CITY": "Connellsville", "STATE": "PA", "ZIP": "15425", "STNTYPE": "RAIL", "STFIPS": "42" }, "geometry": { "type": "Point", "coordinates": [ -79.592598000397345, 40.018100999461581 ] } },
{ "type": "Feature", "properties": { "OBJECTID": 39, "STNCODE": "COX", "STNNAME": "Colfax, California", "ADDRESS1": "99 Railroad St. at Church St.", "ADDRESS2": null, "CITY": "Colfax", "STATE": "CA", "ZIP": "95713", "STNTYPE": "RAIL", "STFIPS": "06" }, "geometry": { "type": "Point", "coordinates": [ -120.952704999835817, 39.099456999441031 ] } },
{ "type": "Feature", "properties": { "OBJECTID": 40, "STNCODE": "CPN", "STNNAME": "Carpinteria, California", "ADDRESS1": "475 Linden at Fifth Street", "ADDRESS2": null, "CITY": "Carpinteria", "STATE": "CA", "ZIP": "93013", "STNTYPE": "RAIL", "STFIPS": "06" }, "geometry": { "type": "Point", "coordinates": [ -119.521317000379213, 34.396003999784796 ] } },
{ "type": "Feature", "properties": { "OBJECTID": 41, "STNCODE": "CRB", "STNNAME": "Crawfordsville (Bus), Indiana", "ADDRESS1": "1000 Smith Ave", "ADDRESS2": "McDonald's Restaurant", "CITY": "Crawfordsville", "STATE": "IN", "ZIP": "47933-1076", "STNTYPE": "BUS", "STFIPS": "18" }, "geometry": { "type": "Point", "coordinates": [ -86.90507653515391, 40.075946410598419 ] } },
{ "type": "Feature", "properties": { "OBJECTID": 42, "STNCODE": "CRF", "STNNAME": "Crawfordsville (Amtrak), Indiana", "ADDRESS1": "Spring and Green Streets", "ADDRESS2": null, "CITY": "Crawfordsville", "STATE": "IN", "ZIP": "47933", "STNTYPE": "RAIL", "STFIPS": "18" }, "geometry": { "type": "Point", "coordinates": [ -86.899384000171437, 40.044254000421859 ] } },
{ "type": "Feature", "properties": { "OBJECTID": 43, "STNCODE": "CRH", "STNNAME": "Cherry Hill, New Jersey", "ADDRESS1": "Cornell Ave. & West Marlton Pike", "ADDRESS2": null, "CITY": "Cherry Hill", "STATE": "NJ", "ZIP": "08002", "STNTYPE": "OTHER", "STFIPS": "34" }, "geometry": { "type": "Point", "coordinates": [ -75.042435000175089, 39.927482999740675 ] } },
{ "type": "Feature", "properties": { "OBJECTID": 44, "STNCODE": "CRM", "STNNAME": "Carmel, California", "ADDRESS1": "3645 Rio Road", "ADDRESS2": "In front Chevron Stationn & Mart", "CITY": "Carmel", "STATE": "CA", "ZIP": "93923-8609", "STNTYPE": "BUS", "STFIPS": "06" }, "geometry": { "type": "Point", "coordinates": [ -121.908042999484792, 36.539317999226341 ] } },
{ "type": "Feature", "properties": { "OBJECTID": 45, "STNCODE": "CRN", "STNNAME": "Creston, Iowa", "ADDRESS1": "Pine and Adams Avenue", "ADDRESS2": null, "CITY": "Creston", "STATE": "IA", "ZIP": "50891", "STNTYPE": "RAIL", "STFIPS": "19" }, "geometry": { "type": "Point", "coordinates": [ -94.36119800038739, 41.057083000080468 ] } },
{ "type": "Feature", "properties": { "OBJECTID": 46, "STNCODE": "CRT", "STNNAME": "Croton Harmon, New York", "ADDRESS1": "1 Croton Point Avenue", "ADDRESS2": null, "CITY": "Croton-on-Hudson", "STATE": "NY", "ZIP": "10520-3054", "STNTYPE": "RAIL", "STFIPS": "36" }, "geometry": { "type": "Point", "coordinates": [ -73.883842000108189, 41.192729999789719 ] } },
{ "type": "Feature", "properties": { "OBJECTID": 47, "STNCODE": "CRV", "STNNAME": "Carlinville, Illinois", "ADDRESS1": "128 Alton Rd.", "ADDRESS2": null, "CITY": "Carlinville", "STATE": "IL", "ZIP": "62626-1625", "STNTYPE": "RAIL", "STFIPS": "17" }, "geometry": { "type": "Point", "coordinates": [ -89.888915999773531, 39.279327000640592 ] } },
{ "type": "Feature", "properties": { "OBJECTID": 48, "STNCODE": "CSN", "STNNAME": "Clemson, South Carolina", "ADDRESS1": "Calhoun Memorial Hwy and College Ave.", "ADDRESS2": null, "CITY": "Clemson", "STATE": "SC", "ZIP": "29631", "STNTYPE": "RAIL", "STFIPS": "45" }, "geometry": { "type": "Point", "coordinates": [ -82.833481000647623, 34.691177000518223 ] } },
{ "type": "Feature", "properties": { "OBJECTID": 51, "STNCODE": "CTL", "STNNAME": "Centralia, Washington", "ADDRESS1": "210 Railroad Avenue", "ADDRESS2": null, "CITY": "Centralia", "STATE": "WA", "ZIP": "98531", "STNTYPE": "RAIL", "STFIPS": "53" }, "geometry": { "type": "Point", "coordinates": [ -122.951880999208697, 46.717421999725559 ] } },
{ "type": "Feature", "properties": { "OBJECTID": 52, "STNCODE": "CUM", "STNNAME": "Cumberland, Maryland", "ADDRESS1": "East Harrison and Queen City Street", "ADDRESS2": null, "CITY": "Cumberland", "STATE": "MD", "ZIP": "21502", "STNTYPE": "RAIL", "STFIPS": "24" }, "geometry": { "type": "Point", "coordinates": [ -78.758475999567679, 39.650584999997818 ] } },
{ "type": "Feature", "properties": { "OBJECTID": 53, "STNCODE": "CUT", "STNNAME": "Cut Bank, Montana", "ADDRESS1": "101 BNSF Industrial Site", "ADDRESS2": "Off Central Avenue\/Hwy 213", "CITY": "Cut Bank", "STATE": "MT", "ZIP": "59427-2934", "STNTYPE": "RAIL", "STFIPS": "30" }, "geometry": { "type": "Point", "coordinates": [ -112.330024999953764, 48.636939999381525 ] } },
{ "type": "Feature", "properties": { "OBJECTID": 54, "STNCODE": "CVD", "STNNAME": "Camp Verde, Arizona", "ADDRESS1": "1613 Finnie Flats Rd", "ADDRESS2": "Burger King", "CITY": "Camp Verde", "STATE": "AZ", "ZIP": "86322-5201", "STNTYPE": "BUS", "STFIPS": "04" }, "geometry": { "type": "Point", "coordinates": [ -111.880638000343424, 34.625778000054709 ] } },
{ "type": "Feature", "properties": { "OBJECTID": 55, "STNCODE": "CVI", "STNNAME": "Corvallis, Oregon", "ADDRESS1": "153 NW 4th Avenue", "ADDRESS2": "Greyhound Station", "CITY": "Corvallis", "STATE": "OR", "ZIP": "97330", "STNTYPE": "BUS", "STFIPS": "41" }, "geometry": { "type": "Point", "coordinates": [ -123.260597000351254, 44.565239000479551 ] } },
{ "type": "Feature", "properties": { "OBJECTID": 56, "STNCODE": "CVS", "STNNAME": "Charlottesville, Virginia", "ADDRESS1": "810 West Main St", "ADDRESS2": null, "CITY": "Charlottesville", "STATE": "VA", "ZIP": "22903", "STNTYPE": "RAIL", "STFIPS": "51" }, "geometry": { "type": "Point", "coordinates": [ -78.492110999922659, 38.032031999277422 ] } },
{ "type": "Feature", "properties": { "OBJECTID": 57, "STNCODE": "CWH", "STNNAME": "Cornwells Heights, Pennsylvania", "ADDRESS1": "700 Station Ave.", "ADDRESS2": "Station Avenue and Railroad Avenue", "CITY": "Cornwells Heights", "STATE": "PA", "ZIP": "19020", "STNTYPE": "RAIL", "STFIPS": "42" }, "geometry": { "type": "Point", "coordinates": [ -74.951431076183155, 40.071729720650126 ] } },
{ "type": "Feature", "properties": { "OBJECTID": 58, "STNCODE": "CWT", "STNNAME": "Chatsworth, California", "ADDRESS1": "10040 Old Depot Plaza Road", "ADDRESS2": null, "CITY": "Chatsworth", "STATE": "CA", "ZIP": "91311", "STNTYPE": "RAIL", "STFIPS": "06" }, "geometry": { "type": "Point", "coordinates": [ -118.59873200028153, 34.257117999995728 ] } },
{ "type": "Feature", "properties": { "OBJECTID": 59, "STNCODE": "CYN", "STNNAME": "Cary, North Carolina", "ADDRESS1": "211 North Academy Street", "ADDRESS2": null, "CITY": "Cary", "STATE": "NC", "ZIP": "27511", "STNTYPE": "RAIL", "STFIPS": "37" }, "geometry": { "type": "Point", "coordinates": [ -78.779678000639194, 35.787708000224086 ] } },
{ "type": "Feature", "properties": { "OBJECTID": 60, "STNCODE": "DAL", "STNNAME": "Dallas, Texas", "ADDRESS1": "400 South Houston St.", "ADDRESS2": "Union Station", "CITY": "Dallas", "STATE": "TX", "ZIP": "75202-4840", "STNTYPE": "RAIL", "STFIPS": "48" }, "geometry": { "type": "Point", "coordinates": [ -96.807404000394286, 32.775542999210074 ] } },
{ "type": "Feature", "properties": { "OBJECTID": 61, "STNCODE": "DAM", "STNNAME": "Damariscotta, Maine", "ADDRESS1": "167 Main St.", "ADDRESS2": "Waltz Pharmacy", "CITY": "Damariscotta", "STATE": "ME", "ZIP": "04543-4649", "STNTYPE": "BUS", "STFIPS": "23" }, "geometry": { "type": "Point", "coordinates": [ -69.530896926052264, 44.032348698833459 ] } },
{ "type": "Feature", "properties": { "OBJECTID": 62, "STNCODE": "DAN", "STNNAME": "Danville, Virginia", "ADDRESS1": "677 Craghead St.", "ADDRESS2": null, "CITY": "Danville", "STATE": "VA", "ZIP": "24541-1503", "STNTYPE": "RAIL", "STFIPS": "51" }, "geometry": { "type": "Point", "coordinates": [ -79.384315000137121, 36.583697999862864 ] } },
{ "type": "Feature", "properties": { "OBJECTID": 63, "STNCODE": "DAV", "STNNAME": "Davis, California", "ADDRESS1": "840 Second Street", "ADDRESS2": "Amtrak Passenger Station", "CITY": "Davis", "STATE": "CA", "ZIP": "95616-4624", "STNTYPE": "RAIL", "STFIPS": "06" }, "geometry": { "type": "Point", "coordinates": [ -121.737068000188003, 38.544113000514642 ] } },
{ "type": "Feature", "properties": { "OBJECTID": 64, "STNCODE": "DBP", "STNNAME": "Dublin-Pleasanton, California", "ADDRESS1": "5801 Owens Drive", "ADDRESS2": "BART Station, north side, East curb near par. str.", "CITY": "Pleasanton", "STATE": "CA", "ZIP": "94588-3900", "STNTYPE": "BUS", "STFIPS": "06" }, "geometry": { "type": "Point", "coordinates": [ -121.897898764616286, 37.69920121616326 ] } },
{ "type": "Feature", "properties": { "OBJECTID": 65, "STNCODE": "DDE", "STNNAME": "Dade City, Florida", "ADDRESS1": "14218 US Highway 98", "ADDRESS2": "Hwy98\/301 Truck Route", "CITY": "Dade City", "STATE": "FL", "ZIP": "33525", "STNTYPE": "OTHER", "STFIPS": "12" }, "geometry": { "type": "Point", "coordinates": [ -82.184821999935309, 28.364188999722614 ] } },
{ "type": "Feature", "properties": { "OBJECTID": 66, "STNCODE": "DDG", "STNNAME": "Dodge City, Kansas", "ADDRESS1": "Central Ave & Wyatt Earp St.", "ADDRESS2": null, "CITY": "Dodge City", "STATE": "KS", "ZIP": "67801", "STNTYPE": "RAIL", "STFIPS": "20" }, "geometry": { "type": "Point", "coordinates": [ -100.016578999820922, 37.752597999498107 ] } },
{ "type": "Feature", "properties": { "OBJECTID": 67, "STNCODE": "DEB", "STNNAME": "Denver (Bus Station), Colorado", "ADDRESS1": "1055 19th Street", "ADDRESS2": "Greyhound Station", "CITY": "Denver", "STATE": "CO", "ZIP": "80202", "STNTYPE": "BUS", "STFIPS": "08" }, "geometry": { "type": "Point", "coordinates": [ -104.991777710373015, 39.750459749417928 ] } },
{ "type": "Feature", "properties": { "OBJECTID": 68, "STNCODE": "DEM", "STNNAME": "Deming, New Mexico", "ADDRESS1": "400 East Railroad Avenue", "ADDRESS2": null, "CITY": "Deming", "STATE": "NM", "ZIP": "88030", "STNTYPE": "RAIL", "STFIPS": "35" }, "geometry": { "type": "Point", "coordinates": [ -107.760833999989075, 32.27108400052623 ] } },
{ "type": "Feature", "properties": { "OBJECTID": 69, "STNCODE": "DEN", "STNNAME": "Denver, Colorado", "ADDRESS1": "1701 Wynkoop Street", "ADDRESS2": "Union Station", "CITY": "Denver", "STATE": "CO", "ZIP": "80202", "STNTYPE": "RAIL", "STFIPS": "08" }, "geometry": { "type": "Point", "coordinates": [ -104.999611000547191, 39.753223000041487 ] } },
{ "type": "Feature", "properties": { "OBJECTID": 70, "STNCODE": "DER", "STNNAME": "Dearborn, Michigan", "ADDRESS1": "16121 Michigan Ave.", "ADDRESS2": null, "CITY": "Dearborn", "STATE": "MI", "ZIP": "48126", "STNTYPE": "RAIL", "STFIPS": "26" }, "geometry": { "type": "Point", "coordinates": [ -83.201180000456645, 42.313049000211265 ] } },
{ "type": "Feature", "properties": { "OBJECTID": 71, "STNCODE": "DET", "STNNAME": "Detroit, Michigan", "ADDRESS1": "11 West Baltimore Ave.", "ADDRESS2": null, "CITY": "Detroit", "STATE": "MI", "ZIP": "48202", "STNTYPE": "RAIL", "STFIPS": "26" }, "geometry": { "type": "Point", "coordinates": [ -83.072098000422329, 42.367881999954363 ] } },
{ "type": "Feature", "properties": { "OBJECTID": 72, "STNCODE": "DFB", "STNNAME": "Deerfield Beach, Florida", "ADDRESS1": "1300 W. Hillsboro Blvd", "ADDRESS2": null, "CITY": "Deerfield Beach", "STATE": "FL", "ZIP": "33442", "STNTYPE": "RAIL", "STFIPS": "12" }, "geometry": { "type": "Point", "coordinates": [ -80.121460000278773, 26.317794999239879 ] } },
{ "type": "Feature", "properties": { "OBJECTID": 73, "STNCODE": "DGS", "STNNAME": "Douglas, Wyoming", "ADDRESS1": "628 East Richards St.", "ADDRESS2": "Plains Motel & Gift Shop", "CITY": "Douglas", "STATE": "WY", "ZIP": "82633-2834", "STNTYPE": "BUS", "STFIPS": "56" }, "geometry": { "type": "Point", "coordinates": [ -105.379646615998467, 42.748523634358264 ] } },
{ "type": "Feature", "properties": { "OBJECTID": 74, "STNCODE": "DHM", "STNNAME": "Durham, New Hampshire", "ADDRESS1": "3 Depot Road", "ADDRESS2": "University of New Hampshire campus", "CITY": "Durham", "STATE": "NH", "ZIP": "03824-1909", "STNTYPE": "RAIL", "STFIPS": "33" }, "geometry": { "type": "Point", "coordinates": [ -70.935829444772992, 43.138976239162162 ] } },
{ "type": "Feature", "properties": { "OBJECTID": 75, "STNCODE": "DIL", "STNNAME": "Dillon, South Carolina", "ADDRESS1": "100 North Railroad Avenue", "ADDRESS2": null, "CITY": "Dillon", "STATE": "SC", "ZIP": "29536", "STNTYPE": "RAIL", "STFIPS": "45" }, "geometry": { "type": "Point", "coordinates": [ -79.371757999332146, 34.418284999353261 ] } },
{ "type": "Feature", "properties": { "OBJECTID": 76, "STNCODE": "DLB", "STNNAME": "Delray Beach, Florida", "ADDRESS1": "345 South Congress Ave", "ADDRESS2": null, "CITY": "Delray Beach", "STATE": "FL", "ZIP": "33444", "STNTYPE": "RAIL", "STFIPS": "12" }, "geometry": { "type": "Point", "coordinates": [ -80.092528999813453, 26.45517900081029 ] } },
{ "type": "Feature", "properties": { "OBJECTID": 77, "STNCODE": "DLD", "STNNAME": "Deland, Florida", "ADDRESS1": "2491 Old New York Ave", "ADDRESS2": null, "CITY": "Deland", "STATE": "FL", "ZIP": "32720-2808", "STNTYPE": "RAIL", "STFIPS": "12" }, "geometry": { "type": "Point", "coordinates": [ -81.352454999998201, 29.016833999889229 ] } },
{ "type": "Feature", "properties": { "OBJECTID": 78, "STNCODE": "DLK", "STNNAME": "Detroit Lakes, Minnesota", "ADDRESS1": "116 Pioneer Street", "ADDRESS2": null, "CITY": "Detroit Lakes", "STATE": "MN", "ZIP": "56501", "STNTYPE": "RAIL", "STFIPS": "27" }, "geometry": { "type": "Point", "coordinates": [ -95.845581000262939, 46.819488999517773 ] } },
{ "type": "Feature", "properties": { "OBJECTID": 79, "STNCODE": "DNC", "STNNAME": "Durham, North Carolina", "ADDRESS1": "400 W. Chapel Hill Street", "ADDRESS2": null, "CITY": "Durham", "STATE": "NC", "ZIP": "27701", "STNTYPE": "RAIL", "STFIPS": "37" }, "geometry": { "type": "Point", "coordinates": [ -78.907227000125943, 35.997036000111393 ] } },
{ "type": "Feature", "properties": { "OBJECTID": 80, "STNCODE": "DNK", "STNNAME": "Denmark, South Carolina", "ADDRESS1": "200 West Baruch Street", "ADDRESS2": null, "CITY": "Denmark", "STATE": "SC", "ZIP": "29042", "STNTYPE": "RAIL", "STFIPS": "45" }, "geometry": { "type": "Point", "coordinates": [ -81.143150000272271, 33.32614499979195 ] } },
{ "type": "Feature", "properties": { "OBJECTID": 81, "STNCODE": "DOA", "STNNAME": "Dowagiac, Michigan", "ADDRESS1": "200 Depot Drive", "ADDRESS2": null, "CITY": "Dowagiac", "STATE": "MI", "ZIP": "49047-1779", "STNTYPE": "RAIL", "STFIPS": "26" }, "geometry": { "type": "Point", "coordinates": [ -86.108734000373772, 41.981201000725662 ] } },
{ "type": "Feature", "properties": { "OBJECTID": 82, "STNCODE": "DOV", "STNNAME": "Dover, New Hampshire", "ADDRESS1": "33 Chestnut St.", "ADDRESS2": null, "CITY": "Dover", "STATE": "NH", "ZIP": "03820-3327", "STNTYPE": "RAIL", "STFIPS": "33" }, "geometry": { "type": "Point", "coordinates": [ -70.876647999905231, 43.19865600017431 ] } },
{ "type": "Feature", "properties": { "OBJECTID": 83, "STNCODE": "DOW", "STNNAME": "Downingtown, Pennsylvania", "ADDRESS1": "West Lancaster Ave. and Stuart Ave.", "ADDRESS2": null, "CITY": "Downingtown", "STATE": "PA", "ZIP": "19335", "STNTYPE": "RAIL", "STFIPS": "42" }, "geometry": { "type": "Point", "coordinates": [ -75.708121999230855, 40.002537000282416 ] } },
{ "type": "Feature", "properties": { "OBJECTID": 84, "STNCODE": "DQN", "STNNAME": "Du Quoin, Illinois", "ADDRESS1": "20 North Chestnut St.", "ADDRESS2": null, "CITY": "Du Quoin", "STATE": "IL", "ZIP": "62832-1602", "STNTYPE": "RAIL", "STFIPS": "17" }, "geometry": { "type": "Point", "coordinates": [ -89.240157999891721, 38.011352999841108 ] } },
{ "type": "Feature", "properties": { "OBJECTID": 85, "STNCODE": "DRD", "STNNAME": "Durand, Michigan", "ADDRESS1": "200 South Railroad St.", "ADDRESS2": null, "CITY": "Durand", "STATE": "MI", "ZIP": "48429-1713", "STNTYPE": "RAIL", "STFIPS": "26" }, "geometry": { "type": "Point", "coordinates": [ -83.982437000567074, 42.909779000200729 ] } },
{ "type": "Feature", "properties": { "OBJECTID": 86, "STNCODE": "DRT", "STNNAME": "Del Rio, Texas", "ADDRESS1": "100 North Main Street", "ADDRESS2": null, "CITY": "Del Rio", "STATE": "TX", "ZIP": "78840", "STNTYPE": "RAIL", "STFIPS": "48" }, "geometry": { "type": "Point", "coordinates": [ -100.901465999855986, 29.363080999688464 ] } },
{ "type": "Feature", "properties": { "OBJECTID": 87, "STNCODE": "DUK", "STNNAME": "Dunkirk, New York", "ADDRESS1": "411 Central Ave.", "ADDRESS2": "P&G Foods", "CITY": "Dunkirk", "STATE": "NY", "ZIP": "14048", "STNTYPE": "BUS", "STFIPS": "36" }, "geometry": { "type": "Point", "coordinates": [ -79.331017000134409, 42.485331999572168 ] } },
{ "type": "Feature", "properties": { "OBJECTID": 88, "STNCODE": "DUL", "STNNAME": "Duluth (Greyhound Station), Minnesota", "ADDRESS1": "4426 Grand Ave.", "ADDRESS2": "Greyhound Terminal", "CITY": "Duluth", "STATE": "MN", "ZIP": "55806", "STNTYPE": "BUS", "STFIPS": "27" }, "geometry": { "type": "Point", "coordinates": [ -92.124008000268987, 46.76660199958269 ] } },
{ "type": "Feature", "properties": { "OBJECTID": 89, "STNCODE": "DUN", "STNNAME": "Dunsmuir (Amtrak Station), California", "ADDRESS1": "5750 Sacramento Avenue", "ADDRESS2": "Amtrak Passenger Station", "CITY": "Dunsmuir", "STATE": "CA", "ZIP": "96025-2024", "STNTYPE": "RAIL", "STFIPS": "06" }, "geometry": { "type": "Point", "coordinates": [ -122.26997400039977, 41.211173999580467 ] } },
{ "type": "Feature", "properties": { "OBJECTID": 90, "STNCODE": "DUU", "STNNAME": "Duluth (University of Minnesota), Minnesota", "ADDRESS1": "175 Kirby Student Union", "ADDRESS2": null, "CITY": "Duluth", "STATE": "MN", "ZIP": "55812", "STNTYPE": "BUS", "STFIPS": "27" }, "geometry": { "type": "Point", "coordinates": [ -92.076770028813769, 46.810445138232581 ] } },
{ "type": "Feature", "properties": { "OBJECTID": 91, "STNCODE": "DVI", "STNNAME": "Danville, Illinois", "ADDRESS1": "379 Lynch Road", "ADDRESS2": "BP Amoco Station", "CITY": "Danville", "STATE": "IL", "ZIP": "61834-9378", "STNTYPE": "BUS", "STFIPS": "17" }, "geometry": { "type": "Point", "coordinates": [ -87.636116000153265, 40.119427000156008 ] } },
{ "type": "Feature", "properties": { "OBJECTID": 92, "STNCODE": "DVL", "STNNAME": "Devils Lake, North Dakota", "ADDRESS1": "Railroad Ave. and Third St.", "ADDRESS2": null, "CITY": "Devils Lake", "STATE": "ND", "ZIP": "58301", "STNTYPE": "RAIL", "STFIPS": "38" }, "geometry": { "type": "Point", "coordinates": [ -98.86137399951042, 48.110645000066768 ] } },
{ "type": "Feature", "properties": { "OBJECTID": 93, "STNCODE": "DVP", "STNNAME": "Davenport, Iowa", "ADDRESS1": "304 West River Drive", "ADDRESS2": null, "CITY": "Davenport", "STATE": "IA", "ZIP": "52801", "STNTYPE": "BUS", "STFIPS": "19" }, "geometry": { "type": "Point", "coordinates": [ -90.577422999871487, 41.519736999962618 ] } },
{ "type": "Feature", "properties": { "OBJECTID": 94, "STNCODE": "DVR", "STNNAME": "Dover, Delaware", "ADDRESS1": "716 South Governors Ave", "ADDRESS2": "City Cab", "CITY": "Dover", "STATE": "DE", "ZIP": "19901-4633", "STNTYPE": "BUS", "STFIPS": "10" }, "geometry": { "type": "Point", "coordinates": [ -75.525293588228465, 39.149950037364363 ] } },
{ "type": "Feature", "properties": { "OBJECTID": 95, "STNCODE": "DWT", "STNNAME": "Dwight, Illinois", "ADDRESS1": "119 West Main St.", "ADDRESS2": null, "CITY": "Dwight", "STATE": "IL", "ZIP": "60420-1321", "STNTYPE": "RAIL", "STFIPS": "17" }, "geometry": { "type": "Point", "coordinates": [ -88.428322000659762, 41.092049000061365 ] } },
{ "type": "Feature", "properties": { "OBJECTID": 96, "STNCODE": "DYA", "STNNAME": "Daytona Beach, Florida", "ADDRESS1": "100 North Atlantic Ave", "ADDRESS2": "Hilton Daytona Beach Ocean Walk Village", "CITY": "Daytona Beach", "STATE": "FL", "ZIP": "32118-4273", "STNTYPE": "BUS", "STFIPS": "12" }, "geometry": { "type": "Point", "coordinates": [ -81.00911699944993, 29.228230999860784 ] } },
{ "type": "Feature", "properties": { "OBJECTID": 97, "STNCODE": "DYE", "STNNAME": "Dyer, Indiana", "ADDRESS1": "913 Sheffield Avenue", "ADDRESS2": "(near Sheffield and Matteson)", "CITY": "Dyer", "STATE": "IN", "ZIP": "46311", "STNTYPE": "RAIL", "STFIPS": "18" }, "geometry": { "type": "Point", "coordinates": [ -87.518187999176803, 41.498528000367003 ] } },
{ "type": "Feature", "properties": { "OBJECTID": 98, "STNCODE": "EDM", "STNNAME": "Edmonds, Washington", "ADDRESS1": "211 Railroad Ave.", "ADDRESS2": null, "CITY": "Edmonds", "STATE": "WA", "ZIP": "98020-4132", "STNTYPE": "RAIL", "STFIPS": "53" }, "geometry": { "type": "Point", "coordinates": [ -122.383071999872868, 47.811295000064263 ] } },
{ "type": "Feature", "properties": { "OBJECTID": 99, "STNCODE": "EFG", "STNNAME": "Effingham, Illinois", "ADDRESS1": "401 West National Ave.", "ADDRESS2": null, "CITY": "Effingham", "STATE": "IL", "ZIP": "62401-3772", "STNTYPE": "RAIL", "STFIPS": "17" }, "geometry": { "type": "Point", "coordinates": [ -88.545714999447625, 39.119156000449095 ] } },
{ "type": "Feature", "properties": { "OBJECTID": 100, "STNCODE": "EGH", "STNNAME": "Egg Harbor City, New Jersey", "ADDRESS1": "South Philadelphia Ave & Atlantic Ave", "ADDRESS2": "New Jersey Transit", "CITY": "Egg Harbor City", "STATE": "NJ", "ZIP": "08215", "STNTYPE": "OTHER", "STFIPS": "34" }, "geometry": { "type": "Point", "coordinates": [ -74.649330023062078, 39.527059995422519 ] } },
{ "type": "Feature", "properties": { "OBJECTID": 101, "STNCODE": "EKA", "STNNAME": "Eureka, California", "ADDRESS1": "Sixth and C Sts.", "ADDRESS2": "Bus stop behind Denny's", "CITY": "Eureka", "STATE": "CA", "ZIP": "95501", "STNTYPE": "BUS", "STFIPS": "06" }, "geometry": { "type": "Point", "coordinates": [ -124.168891002417809, 40.800629881064197 ] } },
{ "type": "Feature", "properties": { "OBJECTID": 102, "STNCODE": "EKG", "STNNAME": "Elk Grove, California", "ADDRESS1": "Harbor Point Drive at Renwick Avenue", "ADDRESS2": "Across from McDonald's", "CITY": "Elk Grove", "STATE": "CA", "ZIP": "95758", "STNTYPE": "BUS", "STFIPS": "06" }, "geometry": { "type": "Point", "coordinates": [ -121.482535565064268, 38.424579809510647 ] } },
{ "type": "Feature", "properties": { "OBJECTID": 103, "STNCODE": "EKH", "STNNAME": "Elkhart, Indiana", "ADDRESS1": "131 Tyler Avenue", "ADDRESS2": null, "CITY": "Elkhart", "STATE": "IN", "ZIP": "46515", "STNTYPE": "RAIL", "STFIPS": "18" }, "geometry": { "type": "Point", "coordinates": [ -85.971054000441711, 41.680720999874325 ] } },
{ "type": "Feature", "properties": { "OBJECTID": 104, "STNCODE": "ELB", "STNNAME": "El Paso (Bus Station), Texas", "ADDRESS1": "200 W. San Antonio Ave.", "ADDRESS2": null, "CITY": "El Paso", "STATE": "TX", "ZIP": "79901-1048", "STNTYPE": "BUS", "STFIPS": "48" }, "geometry": { "type": "Point", "coordinates": [ -106.49012552237491, 31.757270971578123 ] } },
{ "type": "Feature", "properties": { "OBJECTID": 105, "STNCODE": "ELK", "STNNAME": "Elko, Nevada", "ADDRESS1": "12th and Silver Sts.", "ADDRESS2": null, "CITY": "Elko", "STATE": "NV", "ZIP": "89801", "STNTYPE": "RAIL", "STFIPS": "32" }, "geometry": { "type": "Point", "coordinates": [ -115.753394999779402, 40.836875999427889 ] } },
{ "type": "Feature", "properties": { "OBJECTID": 106, "STNCODE": "ELP", "STNNAME": "El Paso, Texas", "ADDRESS1": "700 San Francisco St.", "ADDRESS2": null, "CITY": "El Paso", "STATE": "TX", "ZIP": "79901", "STNTYPE": "RAIL", "STFIPS": "48" }, "geometry": { "type": "Point", "coordinates": [ -106.494888000081119, 31.757725000608332 ] } },
{ "type": "Feature", "properties": { "OBJECTID": 107, "STNCODE": "ELS", "STNNAME": "Elsie, Oregon", "ADDRESS1": "44573 Highway 26", "ADDRESS2": "Baker's General Store\/Hardware", "CITY": "Elsie", "STATE": "OR", "ZIP": "97138", "STNTYPE": "BUS", "STFIPS": "41" }, "geometry": { "type": "Point", "coordinates": [ -123.546560892071454, 45.857760539717162 ] } },
{ "type": "Feature", "properties": { "OBJECTID": 108, "STNCODE": "ELT", "STNNAME": "Elizabethtown, Pennsylvania", "ADDRESS1": "South Wilson Avenue at West High Street", "ADDRESS2": null, "CITY": "Elizabethtown", "STATE": "PA", "ZIP": "17022", "STNTYPE": "RAIL", "STFIPS": "42" }, "geometry": { "type": "Point", "coordinates": [ -76.614578000174504, 40.147400000509663 ] } },
{ "type": "Feature", "properties": { "OBJECTID": 109, "STNCODE": "ELY", "STNNAME": "Elyria, Ohio", "ADDRESS1": "410 East River Road", "ADDRESS2": null, "CITY": "Elyria", "STATE": "OH", "ZIP": "44035", "STNTYPE": "RAIL", "STFIPS": "39" }, "geometry": { "type": "Point", "coordinates": [ -82.097008000019173, 41.37005199950022 ] } },
{ "type": "Feature", "properties": { "OBJECTID": 110, "STNCODE": "EMY", "STNNAME": "Emeryville, California", "ADDRESS1": "5885 Horton Street", "ADDRESS2": null, "CITY": "Emeryville", "STATE": "CA", "ZIP": "94608-2037", "STNTYPE": "RAIL", "STFIPS": "06" }, "geometry": { "type": "Point", "coordinates": [ -122.290680000181851, 37.840679000035891 ] } },
{ "type": "Feature", "properties": { "OBJECTID": 111, "STNCODE": "EPH", "STNNAME": "Ephrata, Washington", "ADDRESS1": "24 Alder St NW", "ADDRESS2": "Bus leaves from 90 Alder St NW", "CITY": "Ephrata", "STATE": "WA", "ZIP": "88823-2421", "STNTYPE": "RAIL", "STFIPS": "53" }, "geometry": { "type": "Point", "coordinates": [ -119.548644999766907, 47.320595000059257 ] } },
{ "type": "Feature", "properties": { "OBJECTID": 112, "STNCODE": "EPL", "STNNAME": "El Portal, California", "ADDRESS1": "11136 Highway 140", "ADDRESS2": "Yosemite View Lodge", "CITY": "El Portal", "STATE": "CA", "ZIP": "95318-0169", "STNTYPE": "BUS", "STFIPS": "06" }, "geometry": { "type": "Point", "coordinates": [ -119.752892000065742, 37.678543000059449 ] } },
{ "type": "Feature", "properties": { "OBJECTID": 113, "STNCODE": "ERI", "STNNAME": "Erie, Pennsylvania", "ADDRESS1": "125 West 14th Street", "ADDRESS2": null, "CITY": "Erie", "STATE": "PA", "ZIP": "16501", "STNTYPE": "RAIL", "STFIPS": "42" }, "geometry": { "type": "Point", "coordinates": [ -80.081039000549424, 42.121127999957309 ] } },
{ "type": "Feature", "properties": { "OBJECTID": 114, "STNCODE": "ESM", "STNNAME": "Essex, Montana", "ADDRESS1": "290 Izaak Walton Inn Rd", "ADDRESS2": "Izaak Walton Inn", "CITY": "Essex", "STATE": "MT", "ZIP": "59916-9710", "STNTYPE": "RAIL", "STFIPS": "30" }, "geometry": { "type": "Point", "coordinates": [ -113.609481999694481, 48.280861000334937 ] } },
{ "type": "Feature", "properties": { "OBJECTID": 115, "STNCODE": "ESX", "STNNAME": "Essex Junction, Vermont", "ADDRESS1": "29 Railroad Ave.", "ADDRESS2": null, "CITY": "Essex Jct.", "STATE": "VT", "ZIP": "05452", "STNTYPE": "RAIL", "STFIPS": "50" }, "geometry": { "type": "Point", "coordinates": [ -73.11045099941407, 44.492572999444405 ] } },
{ "type": "Feature", "properties": { "OBJECTID": 116, "STNCODE": "EUG", "STNNAME": "Eugene, Oregon", "ADDRESS1": "433 Willamette Street", "ADDRESS2": null, "CITY": "Eugene", "STATE": "OR", "ZIP": "97401-2613", "STNTYPE": "RAIL", "STFIPS": "41" }, "geometry": { "type": "Point", "coordinates": [ -123.091843000054382, 44.055385999464363 ] } },
{ "type": "Feature", "properties": { "OBJECTID": 117, "STNCODE": "EVR", "STNNAME": "Everett, Washington", "ADDRESS1": "3201 Smith Ave.", "ADDRESS2": null, "CITY": "Everett", "STATE": "WA", "ZIP": "98201", "STNTYPE": "RAIL", "STFIPS": "53" }, "geometry": { "type": "Point", "coordinates": [ -122.215622000354983, 47.979282000064302 ] } },
{ "type": "Feature", "properties": { "OBJECTID": 118, "STNCODE": "EWR", "STNNAME": "Newark Liberty International Airport, New Jersey", "ADDRESS1": "Newark Liberty International Airport", "ADDRESS2": "AirTrain from main airport terminal", "CITY": "Newark", "STATE": "NJ", "ZIP": "07114-3401", "STNTYPE": "RAIL", "STFIPS": "34" }, "geometry": { "type": "Point", "coordinates": [ -74.19059638651396, 40.70513408626914 ] } },
{ "type": "Feature", "properties": { "OBJECTID": 119, "STNCODE": "EXR", "STNNAME": "Exeter, New Hampshire", "ADDRESS1": "60 Lincoln Street", "ADDRESS2": "Lincoln Street at Railroad Avenue", "CITY": "Exeter", "STATE": "NH", "ZIP": "03833", "STNTYPE": "RAIL", "STFIPS": "33" }, "geometry": { "type": "Point", "coordinates": [ -70.957822000285034, 42.981603000178382 ] } },
{ "type": "Feature", "properties": { "OBJECTID": 120, "STNCODE": "EXT", "STNNAME": "Exton, Pennsylvania", "ADDRESS1": "425 Walkertown Road", "ADDRESS2": "US 30\/Route 100 (Pottstown Pike) interchange", "CITY": "Exton", "STATE": "PA", "ZIP": "19341", "STNTYPE": "RAIL", "STFIPS": "42" }, "geometry": { "type": "Point", "coordinates": [ -75.622020535119589, 40.019109026160663 ] } },
{ "type": "Feature", "properties": { "OBJECTID": 121, "STNCODE": "FAR", "STNNAME": "Fargo, North Dakota", "ADDRESS1": "420 4th Street North", "ADDRESS2": null, "CITY": "Fargo", "STATE": "ND", "ZIP": "58102", "STNTYPE": "RAIL", "STFIPS": "38" }, "geometry": { "type": "Point", "coordinates": [ -96.784614999882308, 46.88107700050324 ] } },
{ "type": "Feature", "properties": { "OBJECTID": 122, "STNCODE": "FAY", "STNNAME": "Fayetteville, North Carolina", "ADDRESS1": "472 Hay Street", "ADDRESS2": null, "CITY": "Fayetteville", "STATE": "NC", "ZIP": "28301-5563", "STNTYPE": "RAIL", "STFIPS": "37" }, "geometry": { "type": "Point", "coordinates": [ -78.885063000557011, 35.054904999765995 ] } },
{ "type": "Feature", "properties": { "OBJECTID": 123, "STNCODE": "FBG", "STNNAME": "Fredericksburg, Virginia", "ADDRESS1": "200 Lafayette Blvd.", "ADDRESS2": null, "CITY": "Fredericksburg", "STATE": "VA", "ZIP": "22401-6067", "STNTYPE": "RAIL", "STFIPS": "51" }, "geometry": { "type": "Point", "coordinates": [ -77.456932000211623, 38.298557000005587 ] } },
{ "type": "Feature", "properties": { "OBJECTID": 124, "STNCODE": "FCC", "STNNAME": "Fort Collins, Colorado", "ADDRESS1": "250 North Mason St.", "ADDRESS2": "Greyhound Station", "CITY": "Fort Collins", "STATE": "CO", "ZIP": "80524-4407", "STNTYPE": "BUS", "STFIPS": "08" }, "geometry": { "type": "Point", "coordinates": [ -105.065917999715907, 40.583781999339863 ] } },
{ "type": "Feature", "properties": { "OBJECTID": 125, "STNCODE": "FDL", "STNNAME": "Fond du Lac, Wisconsin", "ADDRESS1": "976 South Main St.", "ADDRESS2": "Mobile Station", "CITY": "Fond du Lac", "STATE": "WI", "ZIP": "54935-6101", "STNTYPE": "BUS", "STFIPS": "55" }, "geometry": { "type": "Point", "coordinates": [ -88.450187999976208, 43.75251800000575 ] } },
{ "type": "Feature", "properties": { "OBJECTID": 126, "STNCODE": "FDN", "STNNAME": "Fredonia, New York", "ADDRESS1": "1 State University of New York", "ADDRESS2": "William Center Student Union", "CITY": "Fredonia", "STATE": "NY", "ZIP": "14063", "STNTYPE": "BUS", "STFIPS": "36" }, "geometry": { "type": "Point", "coordinates": [ -79.34017899996087, 42.44512599986507 ] } },
{ "type": "Feature", "properties": { "OBJECTID": 127, "STNCODE": "FED", "STNNAME": "Fort Edward-Glens Falls, New York", "ADDRESS1": "70 East St.", "ADDRESS2": "East and Rogers Sts.", "CITY": "Fort Edward", "STATE": "NY", "ZIP": "12828", "STNTYPE": "RAIL", "STFIPS": "36" }, "geometry": { "type": "Point", "coordinates": [ -73.580460000328685, 43.269515999763655 ] } },
{ "type": "Feature", "properties": { "OBJECTID": 128, "STNCODE": "FGG", "STNNAME": "Flagstaff (Greyhound), Arizona", "ADDRESS1": "399 S. Malpais Ln.", "ADDRESS2": "Greyhound Bus Terminal", "CITY": "Flagstaff", "STATE": "AZ", "ZIP": "86001-6218", "STNTYPE": "BUS", "STFIPS": "04" }, "geometry": { "type": "Point", "coordinates": [ -111.657694054237197, 35.194572247811038 ] } },
{ "type": "Feature", "properties": { "OBJECTID": 129, "STNCODE": "FHD", "STNNAME": "Fort Hood, Texas", "ADDRESS1": "Hood Road & Old Ironsides Ave.", "ADDRESS2": "Copeland Soldier's Service Center--Bldg. 18010", "CITY": "Fort Hood", "STATE": "TX", "ZIP": "76544", "STNTYPE": "BUS", "STFIPS": "48" }, "geometry": { "type": "Point", "coordinates": [ -97.764312999645199, 31.139959000007877 ] } },
{ "type": "Feature", "properties": { "OBJECTID": 130, "STNCODE": "FHV", "STNNAME": "Fair Haven, Vermont", "ADDRESS1": "Depot and Water Sts.", "ADDRESS2": null, "CITY": "Fair Haven", "STATE": "VT", "ZIP": "05743", "STNTYPE": "RAIL", "STFIPS": "50" }, "geometry": { "type": "Point", "coordinates": [ -73.262046999869085, 43.590575999982491 ] } },
{ "type": "Feature", "properties": { "OBJECTID": 131, "STNCODE": "FIL", "STNNAME": "Fillmore, California", "ADDRESS1": "718 West Ventura St.", "ADDRESS2": "International House of Pancakes", "CITY": "Fillmore", "STATE": "CA", "ZIP": "93015-1835", "STNTYPE": "BUS", "STFIPS": "06" }, "geometry": { "type": "Point", "coordinates": [ -118.916610999498005, 34.396130000199378 ] } },
{ "type": "Feature", "properties": { "OBJECTID": 132, "STNCODE": "FLG", "STNNAME": "Flagstaff, Arizona", "ADDRESS1": "1 East Route 66", "ADDRESS2": null, "CITY": "Flagstaff", "STATE": "AZ", "ZIP": "86001-5530", "STNTYPE": "RAIL", "STFIPS": "04" }, "geometry": { "type": "Point", "coordinates": [ -111.650664999889784, 35.198013 ] } },
{ "type": "Feature", "properties": { "OBJECTID": 133, "STNCODE": "FLN", "STNNAME": "Flint, Michigan", "ADDRESS1": "1407 South Dort Highway", "ADDRESS2": null, "CITY": "Flint", "STATE": "MI", "ZIP": "48503-2878", "STNTYPE": "RAIL", "STFIPS": "26" }, "geometry": { "type": "Point", "coordinates": [ -83.65483900011975, 43.013633999709384 ] } },
{ "type": "Feature", "properties": { "OBJECTID": 134, "STNCODE": "FLO", "STNNAME": "Florence, South Carolina", "ADDRESS1": "805 East Day Street", "ADDRESS2": null, "CITY": "Florence", "STATE": "SC", "ZIP": "29506", "STNTYPE": "RAIL", "STFIPS": "45" }, "geometry": { "type": "Point", "coordinates": [ -79.757094999534559, 34.198818000450387 ] } },
{ "type": "Feature", "properties": { "OBJECTID": 135, "STNCODE": "FMD", "STNNAME": "Fort Madison, Iowa", "ADDRESS1": "1601 20th Street", "ADDRESS2": null, "CITY": "Fort Madison", "STATE": "IA", "ZIP": "52627", "STNTYPE": "RAIL", "STFIPS": "19" }, "geometry": { "type": "Point", "coordinates": [ -91.333358999618099, 40.623394000432825 ] } },
{ "type": "Feature", "properties": { "OBJECTID": 136, "STNCODE": "FMG", "STNNAME": "Fort Morgan, Colorado", "ADDRESS1": "South Ensign St and Main St", "ADDRESS2": null, "CITY": "Fort Morgan", "STATE": "CO", "ZIP": "80701", "STNTYPE": "RAIL", "STFIPS": "08" }, "geometry": { "type": "Point", "coordinates": [ -103.802650000097401, 40.247329999779708 ] } },
{ "type": "Feature", "properties": { "OBJECTID": 137, "STNCODE": "FMT", "STNNAME": "Fremont (Trains, Capitol Buses), California", "ADDRESS1": "37260 Fremont Blvd.", "ADDRESS2": null, "CITY": "Fremont", "STATE": "CA", "ZIP": "94536", "STNTYPE": "RAIL", "STFIPS": "06" }, "geometry": { "type": "Point", "coordinates": [ -122.006377999844801, 37.558196999991594 ] } },
{ "type": "Feature", "properties": { "OBJECTID": 138, "STNCODE": "FNO", "STNNAME": "Fresno, California", "ADDRESS1": "2650 Tulare St.", "ADDRESS2": "Santa Fe Station", "CITY": "Fresno", "STATE": "CA", "ZIP": "93721-1325", "STNTYPE": "RAIL", "STFIPS": "06" }, "geometry": { "type": "Point", "coordinates": [ -119.782248999491685, 36.738627999382743 ] } },
{ "type": "Feature", "properties": { "OBJECTID": 139, "STNCODE": "FOX", "STNNAME": "Foxwoods Casino, Connecticut", "ADDRESS1": "39 Norwich Westerley Rd.", "ADDRESS2": "Foxwoods Resort Casino", "CITY": "Ledyard", "STATE": "CT", "ZIP": "06339-1128", "STNTYPE": "BUS", "STFIPS": "09" }, "geometry": { "type": "Point", "coordinates": [ -71.971938999984843, 41.457660999855307 ] } },
{ "type": "Feature", "properties": { "OBJECTID": 140, "STNCODE": "FRA", "STNNAME": "Framingham, Massachusetts", "ADDRESS1": "417 Waverly St.", "ADDRESS2": "Intersection Route 126 at Route 135", "CITY": "Framingham", "STATE": "MA", "ZIP": "01702-6948", "STNTYPE": "RAIL", "STFIPS": "25" }, "geometry": { "type": "Point", "coordinates": [ -71.417861999231832, 42.276668999774586 ] } },
{ "type": "Feature", "properties": { "OBJECTID": 141, "STNCODE": "FRO", "STNNAME": "Florence, Oregon", "ADDRESS1": "290 US Highway 101", "ADDRESS2": "2nd Street and US 101, east side", "CITY": "Florence", "STATE": "OR", "ZIP": "97439", "STNTYPE": "BUS", "STFIPS": "41" }, "geometry": { "type": "Point", "coordinates": [ -124.107396260229166, 43.967930162646951 ] } },
{ "type": "Feature", "properties": { "OBJECTID": 142, "STNCODE": "FRT", "STNNAME": "Fremont (San Joaquin Buses), California", "ADDRESS1": "999 Upper Mission Blvd", "ADDRESS2": "off I-680", "CITY": "Fremont", "STATE": "CA", "ZIP": "94538", "STNTYPE": "BUS", "STFIPS": "06" }, "geometry": { "type": "Point", "coordinates": [ -121.922439999706171, 37.539932000361603 ] } },
{ "type": "Feature", "properties": { "OBJECTID": 143, "STNCODE": "FSC", "STNNAME": "Frisco, Colorado", "ADDRESS1": "1010 Meadow Drive", "ADDRESS2": "Frisco Transfer Center", "CITY": "Frisco", "STATE": "CO", "ZIP": "80443", "STNTYPE": "BUS", "STFIPS": "08" }, "geometry": { "type": "Point", "coordinates": [ -106.096282999560742, 39.587104999895871 ] } },
{ "type": "Feature", "properties": { "OBJECTID": 144, "STNCODE": "FTA", "STNNAME": "Fortuna, California", "ADDRESS1": "719 South Fortuna Blvd", "ADDRESS2": "Pepper's Restaurant", "CITY": "Fortuna", "STATE": "CA", "ZIP": "95540", "STNTYPE": "BUS", "STFIPS": "06" }, "geometry": { "type": "Point", "coordinates": [ -124.151894000107973, 40.597495999540797 ] } },
{ "type": "Feature", "properties": { "OBJECTID": 145, "STNCODE": "FTC", "STNNAME": "Ticonderoga, New York", "ADDRESS1": "NYS Hwy 74 and Sandy Redoubt", "ADDRESS2": "near Lake Champlain Ferry", "CITY": "Ticonderoga", "STATE": "NY", "ZIP": "12883", "STNTYPE": "RAIL", "STFIPS": "36" }, "geometry": { "type": "Point", "coordinates": [ -73.390639999836083, 43.852993000126901 ] } },
{ "type": "Feature", "properties": { "OBJECTID": 146, "STNCODE": "FTL", "STNNAME": "Fort Lauderdale, Florida", "ADDRESS1": "200 S.W. 21 Terrace", "ADDRESS2": null, "CITY": "Fort Lauderdale", "STATE": "FL", "ZIP": "33312", "STNTYPE": "RAIL", "STFIPS": "12" }, "geometry": { "type": "Point", "coordinates": [ -80.170189000022276, 26.119614000785532 ] } },
{ "type": "Feature", "properties": { "OBJECTID": 147, "STNCODE": "FTM", "STNNAME": "Fort Myers, Florida", "ADDRESS1": "6050 Plaza Drive", "ADDRESS2": "Fort Myers Travel Plaza, I-75 exit 139", "CITY": "Fort Myers", "STATE": "FL", "ZIP": "33906-4419", "STNTYPE": "BUS", "STFIPS": "12" }, "geometry": { "type": "Point", "coordinates": [ -81.884902999773601, 26.682349999752716 ] } },
{ "type": "Feature", "properties": { "OBJECTID": 148, "STNCODE": "FTN", "STNNAME": "Fulton, Kentucky", "ADDRESS1": "21 Newton Rd.", "ADDRESS2": null, "CITY": "Fulton", "STATE": "KY", "ZIP": "42041", "STNTYPE": "RAIL", "STFIPS": "21" }, "geometry": { "type": "Point", "coordinates": [ -88.88800800036887, 36.522521999890444 ] } },
{ "type": "Feature", "properties": { "OBJECTID": 149, "STNCODE": "FTW", "STNNAME": "Fort Worth, Texas", "ADDRESS1": "1001 Jones Street", "ADDRESS2": null, "CITY": "Fort Worth", "STATE": "TX", "ZIP": "76102", "STNTYPE": "RAIL", "STFIPS": "48" }, "geometry": { "type": "Point", "coordinates": [ -97.323867999608467, 32.749374000209968 ] } },
{ "type": "Feature", "properties": { "OBJECTID": 150, "STNCODE": "FUL", "STNNAME": "Fullerton, California", "ADDRESS1": "120 East Santa Fe Avenue", "ADDRESS2": "Fullerton Transportation Center", "CITY": "Fullerton", "STATE": "CA", "ZIP": "92832", "STNTYPE": "RAIL", "STFIPS": "06" }, "geometry": { "type": "Point", "coordinates": [ -117.922835999881443, 33.86894600035771 ] } },
{ "type": "Feature", "properties": { "OBJECTID": 151, "STNCODE": "GAC", "STNNAME": "Santa Clara (Great America), California", "ADDRESS1": "5099 Stars & Stripes Dr.", "ADDRESS2": "Under Tasman Dr. overpass", "CITY": "Santa Clara", "STATE": "CA", "ZIP": "95054", "STNTYPE": "RAIL", "STFIPS": "06" }, "geometry": { "type": "Point", "coordinates": [ -121.946410999867737, 37.378510000036499 ] } },
{ "type": "Feature", "properties": { "OBJECTID": 152, "STNCODE": "GAS", "STNNAME": "Gastonia, North Carolina", "ADDRESS1": "350 Hancock Street", "ADDRESS2": null, "CITY": "Gastonia", "STATE": "NC", "ZIP": "28054", "STNTYPE": "RAIL", "STFIPS": "37" }, "geometry": { "type": "Point", "coordinates": [ -81.163978999431265, 35.268356000029428 ] } },
{ "type": "Feature", "properties": { "OBJECTID": 153, "STNCODE": "GBB", "STNNAME": "Galesburg, Illinois", "ADDRESS1": "225 South Seminary Street", "ADDRESS2": "Amtrak Union Station", "CITY": "Galesburg", "STATE": "IL", "ZIP": "61401", "STNTYPE": "RAIL", "STFIPS": "17" }, "geometry": { "type": "Point", "coordinates": [ -90.364104999446113, 40.944050000007564 ] } },
{ "type": "Feature", "properties": { "OBJECTID": 155, "STNCODE": "GBV", "STNNAME": "Garberville, California", "ADDRESS1": "924 Redwood Drive", "ADDRESS2": "Waterwheel Restaurant", "CITY": "Garberville", "STATE": "CA", "ZIP": "95542", "STNTYPE": "BUS", "STFIPS": "06" }, "geometry": { "type": "Point", "coordinates": [ -123.793899999985001, 40.101063000457145 ] } },
{ "type": "Feature", "properties": { "OBJECTID": 156, "STNCODE": "GCB", "STNNAME": "Grand Canyon (Buses), Arizona", "ADDRESS1": "Maswik Lodge", "ADDRESS2": null, "CITY": "Grand Canyon National Park", "STATE": "AZ", "ZIP": "86023", "STNTYPE": "BUS", "STFIPS": "04" }, "geometry": { "type": "Point", "coordinates": [ -112.138795373307801, 36.055029224719021 ] } },
{ "type": "Feature", "properties": { "OBJECTID": 157, "STNCODE": "GCK", "STNNAME": "Garden City, Kansas", "ADDRESS1": "100 North 7th Street", "ADDRESS2": "1 block south of 7th & Fulton (Bus Highway 50)", "CITY": "Garden City", "STATE": "KS", "ZIP": "67846-5547", "STNTYPE": "RAIL", "STFIPS": "20" }, "geometry": { "type": "Point", "coordinates": [ -100.872794999689461, 37.964724999858902 ] } },
{ "type": "Feature", "properties": { "OBJECTID": 158, "STNCODE": "GCN", "STNNAME": "Grand Canyon (Railway), Arizona", "ADDRESS1": "Grand Canyon Railway Station", "ADDRESS2": "downhill from Bright Angel Lodge", "CITY": "Grand Canyon National Park", "STATE": "AZ", "ZIP": "86023", "STNTYPE": "OTHER", "STFIPS": "04" }, "geometry": { "type": "Point", "coordinates": [ -112.134941000426807, 36.056716999489993 ] } },
{ "type": "Feature", "properties": { "OBJECTID": 159, "STNCODE": "GDL", "STNNAME": "Glendale, California", "ADDRESS1": "400 West Cerritos Avenue", "ADDRESS2": "Glendale Transportation Center", "CITY": "Glendale", "STATE": "CA", "ZIP": "91204", "STNTYPE": "RAIL", "STFIPS": "06" }, "geometry": { "type": "Point", "coordinates": [ -118.257957000115425, 34.123637999494122 ] } },
{ "type": "Feature", "properties": { "OBJECTID": 160, "STNCODE": "GFK", "STNNAME": "Grand Forks, North Dakota", "ADDRESS1": "5555 DeMers Avenue", "ADDRESS2": null, "CITY": "Grand Forks", "STATE": "ND", "ZIP": "58201", "STNTYPE": "RAIL", "STFIPS": "38" }, "geometry": { "type": "Point", "coordinates": [ -97.110434999275753, 47.918853999512521 ] } },
{ "type": "Feature", "properties": { "OBJECTID": 161, "STNCODE": "GFV", "STNNAME": "Greenfield Village, Michigan", "ADDRESS1": "20900 Oakwood Blvd.", "ADDRESS2": "Group travel only - not a regular stop", "CITY": "Dearborn", "STATE": "MI", "ZIP": "48216", "STNTYPE": "RAIL", "STFIPS": "26" }, "geometry": { "type": "Point", "coordinates": [ -83.241843999700791, 42.304901000380937 ] } },
{ "type": "Feature", "properties": { "OBJECTID": 162, "STNCODE": "GGW", "STNNAME": "Glasgow, Montana", "ADDRESS1": "424 1st Avenue South", "ADDRESS2": null, "CITY": "Glasgow", "STATE": "MT", "ZIP": "59230-2396", "STNTYPE": "RAIL", "STFIPS": "30" }, "geometry": { "type": "Point", "coordinates": [ -106.634811000027582, 48.194515000666797 ] } },
{ "type": "Feature", "properties": { "OBJECTID": 163, "STNCODE": "GHT", "STNNAME": "Gearhart, Oregon", "ADDRESS1": "4320 Highway 101, North", "ADDRESS2": "Gearhart Builders Supply Store", "CITY": "Gearhart", "STATE": "OR", "ZIP": "97301", "STNTYPE": "BUS", "STFIPS": "41" }, "geometry": { "type": "Point", "coordinates": [ -123.915589908247625, 46.058702575563473 ] } },
{ "type": "Feature", "properties": { "OBJECTID": 164, "STNCODE": "GJT", "STNNAME": "Grand Junction, Colorado", "ADDRESS1": "339 South 1st Street", "ADDRESS2": null, "CITY": "Grand Junction", "STATE": "CO", "ZIP": "81501-2207", "STNTYPE": "RAIL", "STFIPS": "08" }, "geometry": { "type": "Point", "coordinates": [ -108.569923000246206, 39.064819000196735 ] } },
{ "type": "Feature", "properties": { "OBJECTID": 165, "STNCODE": "GLE", "STNNAME": "Gainesville, Texas", "ADDRESS1": "605 East California Street", "ADDRESS2": null, "CITY": "Gainesville", "STATE": "TX", "ZIP": "76240", "STNTYPE": "RAIL", "STFIPS": "48" }, "geometry": { "type": "Point", "coordinates": [ -97.140265999875965, 33.624423999867759 ] } },
{ "type": "Feature", "properties": { "OBJECTID": 166, "STNCODE": "GLM", "STNNAME": "Gilman, Illinois", "ADDRESS1": "US Hwy 24 & West Wenona St.", "ADDRESS2": null, "CITY": "Gilman", "STATE": "IL", "ZIP": "60983", "STNTYPE": "RAIL", "STFIPS": "17" }, "geometry": { "type": "Point", "coordinates": [ -87.994766000850234, 40.762076999853718 ] } },
{ "type": "Feature", "properties": { "OBJECTID": 167, "STNCODE": "GLN", "STNNAME": "Glenview, Illinois", "ADDRESS1": "1116 Depot St.", "ADDRESS2": null, "CITY": "Glenview", "STATE": "IL", "ZIP": "60025", "STNTYPE": "RAIL", "STFIPS": "17" }, "geometry": { "type": "Point", "coordinates": [ -87.805343999825709, 42.074196000345182 ] } },
{ "type": "Feature", "properties": { "OBJECTID": 168, "STNCODE": "GLP", "STNNAME": "Gallup, New Mexico", "ADDRESS1": "201 East Highway 66", "ADDRESS2": "(Amtrak shares space with Indian Museum)", "CITY": "Gallup", "STATE": "NM", "ZIP": "87301", "STNTYPE": "RAIL", "STFIPS": "35" }, "geometry": { "type": "Point", "coordinates": [ -108.739676999893618, 35.529246999949123 ] } },
{ "type": "Feature", "properties": { "OBJECTID": 169, "STNCODE": "GLS", "STNNAME": "Galveston (Texas Eagle Bus), Texas", "ADDRESS1": "25th St. and Strand St.", "ADDRESS2": "The Railroad Museum", "CITY": "Galveston", "STATE": "TX", "ZIP": "77550", "STNTYPE": "BUS", "STFIPS": "48" }, "geometry": { "type": "Point", "coordinates": [ -94.786072000022727, 29.29120800014914 ] } },
{ "type": "Feature", "properties": { "OBJECTID": 171, "STNCODE": "GLY", "STNNAME": "Gilroy, California", "ADDRESS1": "7250 Monterey Street", "ADDRESS2": "Caltrain Station", "CITY": "Gilroy", "STATE": "CA", "ZIP": "95020", "STNTYPE": "BUS", "STFIPS": "06" }, "geometry": { "type": "Point", "coordinates": [ -121.567504999456105, 37.005981000522809 ] } },
{ "type": "Feature", "properties": { "OBJECTID": 173, "STNCODE": "GNB", "STNNAME": "Greensburg, Pennsylvania", "ADDRESS1": "Harrison Ave. and Seton Hill Dr.", "ADDRESS2": null, "CITY": "Greensburg", "STATE": "PA", "ZIP": "15601", "STNTYPE": "RAIL", "STFIPS": "42" }, "geometry": { "type": "Point", "coordinates": [ -79.547279000525407, 40.304851999420293 ] } },
{ "type": "Feature", "properties": { "OBJECTID": 174, "STNCODE": "GNF", "STNNAME": "Gainesville, Florida", "ADDRESS1": "201 East University Ave.", "ADDRESS2": null, "CITY": "Gainesville", "STATE": "FL", "ZIP": "32601-5457", "STNTYPE": "BUS", "STFIPS": "12" }, "geometry": { "type": "Point", "coordinates": [ -82.323221776763546, 29.652079811933845 ] } },
{ "type": "Feature", "properties": { "OBJECTID": 175, "STNCODE": "GNS", "STNNAME": "Gainesville, Georgia", "ADDRESS1": "116 Industrial Boulevard", "ADDRESS2": null, "CITY": "Gainesville", "STATE": "GA", "ZIP": "30501", "STNTYPE": "RAIL", "STFIPS": "13" }, "geometry": { "type": "Point", "coordinates": [ -83.826682999920479, 34.283717999985754 ] } },
{ "type": "Feature", "properties": { "OBJECTID": 176, "STNCODE": "GPK", "STNNAME": "East Glacier Park, Montana", "ADDRESS1": "400 Highway 49 North", "ADDRESS2": null, "CITY": "East Glacier Park", "STATE": "MT", "ZIP": "59434", "STNTYPE": "RAIL", "STFIPS": "30" }, "geometry": { "type": "Point", "coordinates": [ -113.218558999997811, 48.443966000030912 ] } },
{ "type": "Feature", "properties": { "OBJECTID": 177, "STNCODE": "GRA", "STNNAME": "Granby, Colorado", "ADDRESS1": "438 Railroad Avenue", "ADDRESS2": null, "CITY": "Granby", "STATE": "CO", "ZIP": "80446", "STNTYPE": "RAIL", "STFIPS": "08" }, "geometry": { "type": "Point", "coordinates": [ -105.934836999927597, 40.083916000223269 ] } },
{ "type": "Feature", "properties": { "OBJECTID": 178, "STNCODE": "GRI", "STNNAME": "Green River, Utah", "ADDRESS1": "250 South Broadway", "ADDRESS2": "@ RR Tracks and Airport Rd.", "CITY": "Green River", "STATE": "UT", "ZIP": "84525", "STNTYPE": "RAIL", "STFIPS": "49" }, "geometry": { "type": "Point", "coordinates": [ -110.164597000551112, 38.992443000843878 ] } },
{ "type": "Feature", "properties": { "OBJECTID": 179, "STNCODE": "GRO", "STNNAME": "Greensboro, North Carolina", "ADDRESS1": "236 East Washington Street", "ADDRESS2": "Galyon Transportation Center", "CITY": "Greensboro", "STATE": "NC", "ZIP": "27401-2704", "STNTYPE": "RAIL", "STFIPS": "37" }, "geometry": { "type": "Point", "coordinates": [ -79.831352000194613, 36.061202999518855 ] } },
{ "type": "Feature", "properties": { "OBJECTID": 180, "STNCODE": "GRR", "STNNAME": "Grand Rapids, Michigan", "ADDRESS1": "431 Wealthy St. SW", "ADDRESS2": "near Market and Wealthy Sts. SW", "CITY": "Grand Rapids", "STATE": "MI", "ZIP": "49503-4061", "STNTYPE": "RAIL", "STFIPS": "26" }, "geometry": { "type": "Point", "coordinates": [ -85.67899300022674, 42.95637099942212 ] } },
{ "type": "Feature", "properties": { "OBJECTID": 181, "STNCODE": "GRS", "STNNAME": "Grass Valley, California", "ADDRESS1": "125 E. Main Street", "ADDRESS2": "City Hall", "CITY": "Grass Valley", "STATE": "CA", "ZIP": "95945", "STNTYPE": "BUS", "STFIPS": "06" }, "geometry": { "type": "Point", "coordinates": [ -121.057953000630448, 39.219382999925585 ] } },
{ "type": "Feature", "properties": { "OBJECTID": 182, "STNCODE": "GRV", "STNNAME": "Greenville, South Carolina", "ADDRESS1": "1120 West Washington Street", "ADDRESS2": "near Downtown Greenville", "CITY": "Greenville", "STATE": "SC", "ZIP": "29601", "STNTYPE": "RAIL", "STFIPS": "45" }, "geometry": { "type": "Point", "coordinates": [ -82.414185000137593, 34.856560000043999 ] } },
{ "type": "Feature", "properties": { "OBJECTID": 183, "STNCODE": "GSC", "STNNAME": "Glenwood Springs, Colorado", "ADDRESS1": "413 7th Street", "ADDRESS2": null, "CITY": "Glenwood Springs", "STATE": "CO", "ZIP": "81601", "STNTYPE": "RAIL", "STFIPS": "08" }, "geometry": { "type": "Point", "coordinates": [ -107.322678000289443, 39.548118999792052 ] } },
{ "type": "Feature", "properties": { "OBJECTID": 184, "STNCODE": "GSN", "STNNAME": "Goshen Junction, California", "ADDRESS1": "30435 Road 68", "ADDRESS2": "Greyhound Bus Stop", "CITY": "Visalia", "STATE": "CA", "ZIP": "93227-9585", "STNTYPE": "BUS", "STFIPS": "06" }, "geometry": { "type": "Point", "coordinates": [ -119.42146282564886, 36.341585355080099 ] } },
{ "type": "Feature", "properties": { "OBJECTID": 185, "STNCODE": "GTA", "STNNAME": "Goleta, California", "ADDRESS1": "25 South La Patera Lane", "ADDRESS2": null, "CITY": "Goleta", "STATE": "CA", "ZIP": "93117", "STNTYPE": "RAIL", "STFIPS": "06" }, "geometry": { "type": "Point", "coordinates": [ -119.841170999841722, 34.437557000455286 ] } },
{ "type": "Feature", "properties": { "OBJECTID": 186, "STNCODE": "GUA", "STNNAME": "Guadalupe, California", "ADDRESS1": "330 Guadalupe Street", "ADDRESS2": "Highway-1", "CITY": "Guadalupe", "STATE": "CA", "ZIP": "93434", "STNTYPE": "RAIL", "STFIPS": "06" }, "geometry": { "type": "Point", "coordinates": [ -120.572945000511311, 34.96260499982094 ] } },
{ "type": "Feature", "properties": { "OBJECTID": 188, "STNCODE": "GVB", "STNNAME": "Grover Beach, California", "ADDRESS1": "180 West Grand Avenue", "ADDRESS2": null, "CITY": "Grover Beach", "STATE": "CA", "ZIP": "93433-1968", "STNTYPE": "RAIL", "STFIPS": "06" }, "geometry": { "type": "Point", "coordinates": [ -120.628105000045707, 35.122066000545544 ] } },
{ "type": "Feature", "properties": { "OBJECTID": 189, "STNCODE": "GVI", "STNNAME": "Grangeville, Idaho", "ADDRESS1": "901 West Main (Highway 95)", "ADDRESS2": "ZIP TRIP", "CITY": "Grangeville", "STATE": "ID", "ZIP": "83530", "STNTYPE": "BUS", "STFIPS": "16" }, "geometry": { "type": "Point", "coordinates": [ -116.128936999742734, 45.926506000251777 ] } },
{ "type": "Feature", "properties": { "OBJECTID": 190, "STNCODE": "GWD", "STNNAME": "Greenwood, Mississippi", "ADDRESS1": "Carrolton Ave. and East Gibbs Street", "ADDRESS2": "506 Carrolton Ave.?", "CITY": "Greenwood", "STATE": "MS", "ZIP": "38930", "STNTYPE": "RAIL", "STFIPS": "28" }, "geometry": { "type": "Point", "coordinates": [ -90.176086000168709, 33.517738000208567 ] } },
{ "type": "Feature", "properties": { "OBJECTID": 191, "STNCODE": "HAM", "STNNAME": "Hamlet, North Carolina", "ADDRESS1": "West Main St. and North Bridges St.", "ADDRESS2": null, "CITY": "Hamlet", "STATE": "NC", "ZIP": "28345", "STNTYPE": "RAIL", "STFIPS": "37" }, "geometry": { "type": "Point", "coordinates": [ -79.698456000543956, 34.883072000472509 ] } },
{ "type": "Feature", "properties": { "OBJECTID": 192, "STNCODE": "HAR", "STNNAME": "Harrisburg, Pennsylvania", "ADDRESS1": "4th and Chestnut Streets", "ADDRESS2": null, "CITY": "Harrisburg", "STATE": "PA", "ZIP": "17101", "STNTYPE": "RAIL", "STFIPS": "42" }, "geometry": { "type": "Point", "coordinates": [ -76.87819699999153, 40.261561999586661 ] } },
{ "type": "Feature", "properties": { "OBJECTID": 193, "STNCODE": "HAS", "STNNAME": "Hastings, Nebraska", "ADDRESS1": "501 West First St.", "ADDRESS2": null, "CITY": "Hastings", "STATE": "NE", "ZIP": "68901", "STNTYPE": "RAIL", "STFIPS": "31" }, "geometry": { "type": "Point", "coordinates": [ -98.387329000432999, 40.584132999338522 ] } },
{ "type": "Feature", "properties": { "OBJECTID": 194, "STNCODE": "HAV", "STNNAME": "Havre, Montana", "ADDRESS1": "235 Main Street", "ADDRESS2": null, "CITY": "Havre", "STATE": "MT", "ZIP": "59501-3599", "STNTYPE": "RAIL", "STFIPS": "30" }, "geometry": { "type": "Point", "coordinates": [ -109.67812300027623, 48.554416999744774 ] } },
{ "type": "Feature", "properties": { "OBJECTID": 195, "STNCODE": "HAY", "STNNAME": "Hayward, California", "ADDRESS1": "22555 Meekland Avenue", "ADDRESS2": "Amtrak Rail & Thruway Bus Station", "CITY": "Hayward", "STATE": "CA", "ZIP": "94541", "STNTYPE": "RAIL", "STFIPS": "06" }, "geometry": { "type": "Point", "coordinates": [ -122.097786000023859, 37.666858999942917 ] } },
{ "type": "Feature", "properties": { "OBJECTID": 196, "STNCODE": "HAZ", "STNNAME": "Hazlehurst, Mississippi", "ADDRESS1": "North Ragsdale Ave and East Conway St.", "ADDRESS2": null, "CITY": "Hazlehurst", "STATE": "MS", "ZIP": "39083", "STNTYPE": "RAIL", "STFIPS": "28" }, "geometry": { "type": "Point", "coordinates": [ -90.394279000575352, 31.862897999742927 ] } },
{ "type": "Feature", "properties": { "OBJECTID": 197, "STNCODE": "HBG", "STNNAME": "Hattiesburg, Mississippi", "ADDRESS1": "308 Newman St.", "ADDRESS2": "308 Newman St.", "CITY": "Hattiesburg", "STATE": "MS", "ZIP": "39401", "STNTYPE": "RAIL", "STFIPS": "28" }, "geometry": { "type": "Point", "coordinates": [ -89.286186000083774, 31.326719000581477 ] } },
{ "type": "Feature", "properties": { "OBJECTID": 198, "STNCODE": "HEA", "STNNAME": "Healdsburg (Singletree Inn), California", "ADDRESS1": "165 Healdsburg Ave.", "ADDRESS2": null, "CITY": "Healdsburg", "STATE": "CA", "ZIP": "95448-4000", "STNTYPE": "BUS", "STFIPS": "06" }, "geometry": { "type": "Point", "coordinates": [ -122.869498999779012, 38.610667999428699 ] } },
{ "type": "Feature", "properties": { "OBJECTID": 199, "STNCODE": "HEM", "STNNAME": "Hermann, Missouri", "ADDRESS1": "Wharf & Gutenberg Sts.", "ADDRESS2": null, "CITY": "Herman", "STATE": "MO", "ZIP": "65041", "STNTYPE": "RAIL", "STFIPS": "29" }, "geometry": { "type": "Point", "coordinates": [ -91.432601999582573, 38.707293999218734 ] } },
{ "type": "Feature", "properties": { "OBJECTID": 200, "STNCODE": "HER", "STNNAME": "Helper, Utah", "ADDRESS1": "1 Depot Street", "ADDRESS2": null, "CITY": "Helper", "STATE": "UT", "ZIP": "84526", "STNTYPE": "RAIL", "STFIPS": "49" }, "geometry": { "type": "Point", "coordinates": [ -110.85257699972874, 39.688197999737952 ] } },
{ "type": "Feature", "properties": { "OBJECTID": 201, "STNCODE": "HET", "STNNAME": "Hemet (West Florida Ave), California", "ADDRESS1": "3246 West Florida Avenue", "ADDRESS2": "Coco's Restaurant", "CITY": "Hemet", "STATE": "CA", "ZIP": "92545-3622", "STNTYPE": "BUS", "STFIPS": "06" }, "geometry": { "type": "Point", "coordinates": [ -117.005845099471742, 33.747380230912995 ] } },
{ "type": "Feature", "properties": { "OBJECTID": 202, "STNCODE": "HFD", "STNNAME": "Hartford, Connecticut", "ADDRESS1": "One Union Place", "ADDRESS2": null, "CITY": "Hartford", "STATE": "CT", "ZIP": "06103", "STNTYPE": "RAIL", "STFIPS": "09" }, "geometry": { "type": "Point", "coordinates": [ -72.682120999584413, 41.767799000023899 ] } },
{ "type": "Feature", "properties": { "OBJECTID": 203, "STNCODE": "HFY", "STNNAME": "Harpers Ferry, West Virginia", "ADDRESS1": "Potomac St. & Shenandoah St.", "ADDRESS2": "station 1\/4 mi (400 m) north", "CITY": "Harpers Ferry", "STATE": "WV", "ZIP": "25425", "STNTYPE": "RAIL", "STFIPS": "54" }, "geometry": { "type": "Point", "coordinates": [ -77.733559000047762, 39.325042999934567 ] } },
{ "type": "Feature", "properties": { "OBJECTID": 204, "STNCODE": "HGD", "STNNAME": "Huntingdon, Pennsylvania", "ADDRESS1": "Fourth and Allegheny Sts.", "ADDRESS2": null, "CITY": "Huntingdon", "STATE": "PA", "ZIP": "16652", "STNTYPE": "RAIL", "STFIPS": "42" }, "geometry": { "type": "Point", "coordinates": [ -78.011833000292711, 40.483494000647681 ] } },
{ "type": "Feature", "properties": { "OBJECTID": 205, "STNCODE": "HGN", "STNNAME": "Harlingen, Texas", "ADDRESS1": "215 E. Monroe Ave.", "ADDRESS2": null, "CITY": "Harlingen", "STATE": "TX", "ZIP": "78550-5519", "STNTYPE": "BUS", "STFIPS": "48" }, "geometry": { "type": "Point", "coordinates": [ -97.693901000031076, 26.193434000179025 ] } },
{ "type": "Feature", "properties": { "OBJECTID": 206, "STNCODE": "HHL", "STNNAME": "Haverhill, Massachusetts", "ADDRESS1": "Washington Street at Railroad Square", "ADDRESS2": null, "CITY": "Haverhill", "STATE": "MA", "ZIP": "01832-5418", "STNTYPE": "RAIL", "STFIPS": "25" }, "geometry": { "type": "Point", "coordinates": [ -71.085945999308365, 42.77270799957455 ] } },
{ "type": "Feature", "properties": { "OBJECTID": 207, "STNCODE": "HIN", "STNNAME": "Hinton, West Virginia", "ADDRESS1": "Front St. and Fifth Ave.", "ADDRESS2": null, "CITY": "Hinton", "STATE": "WV", "ZIP": "25951", "STNTYPE": "RAIL", "STFIPS": "54" }, "geometry": { "type": "Point", "coordinates": [ -80.88863400025889, 37.677071000526325 ] } },
{ "type": "Feature", "properties": { "OBJECTID": 208, "STNCODE": "HLD", "STNNAME": "Holdrege, Nebraska", "ADDRESS1": "100 West Ave.", "ADDRESS2": null, "CITY": "Holdrege", "STATE": "NE", "ZIP": "68949", "STNTYPE": "RAIL", "STFIPS": "31" }, "geometry": { "type": "Point", "coordinates": [ -99.37074300068889, 40.436192000160759 ] } },
{ "type": "Feature", "properties": { "OBJECTID": 209, "STNCODE": "HMD", "STNNAME": "Hammond, Louisiana", "ADDRESS1": "404 N.E. Railroad Ave.", "ADDRESS2": null, "CITY": "Hammond", "STATE": "LA", "ZIP": "70401", "STNTYPE": "RAIL", "STFIPS": "22" }, "geometry": { "type": "Point", "coordinates": [ -90.463592999916955, 30.511697999263333 ] } },
{ "type": "Feature", "properties": { "OBJECTID": 210, "STNCODE": "HMI", "STNNAME": "Hammond-Whiting, Indiana", "ADDRESS1": "1135 South Calumet Ave.", "ADDRESS2": null, "CITY": "Hammond", "STATE": "IN", "ZIP": "46320-1044", "STNTYPE": "RAIL", "STFIPS": "18" }, "geometry": { "type": "Point", "coordinates": [ -87.508743000688867, 41.693080999688448 ] } },
{ "type": "Feature", "properties": { "OBJECTID": 211, "STNCODE": "HMT", "STNNAME": "Hemet (Devonshire Ave), California", "ADDRESS1": "308 East Devonshire Avenue", "ADDRESS2": "Simpson Senior Center", "CITY": "Hemet", "STATE": "CA", "ZIP": "92543-2906", "STNTYPE": "BUS", "STFIPS": "06" }, "geometry": { "type": "Point", "coordinates": [ -117.005477999809784, 33.747173000133898 ] } },
{ "type": "Feature", "properties": { "OBJECTID": 212, "STNCODE": "HMW", "STNNAME": "Homewood, Illinois", "ADDRESS1": "18015 Park Ave.", "ADDRESS2": null, "CITY": "Homewood", "STATE": "IL", "ZIP": "60430", "STNTYPE": "RAIL", "STFIPS": "17" }, "geometry": { "type": "Point", "coordinates": [ -87.668509999336948, 41.562351000098602 ] } },
{ "type": "Feature", "properties": { "OBJECTID": 213, "STNCODE": "HNF", "STNNAME": "Hanford, California", "ADDRESS1": "200 Santa Fe Avenue #A", "ADDRESS2": null, "CITY": "Hanford", "STATE": "CA", "ZIP": "93230-4554", "STNTYPE": "RAIL", "STFIPS": "06" }, "geometry": { "type": "Point", "coordinates": [ -119.650779999996985, 36.326214000575703 ] } },
{ "type": "Feature", "properties": { "OBJECTID": 214, "STNCODE": "HOL", "STNNAME": "Hollywood, Florida", "ADDRESS1": "3001 Hollywood Blvd", "ADDRESS2": null, "CITY": "Hollywood", "STATE": "FL", "ZIP": "33021", "STNTYPE": "RAIL", "STFIPS": "12" }, "geometry": { "type": "Point", "coordinates": [ -80.168541000466746, 26.01068700030487 ] } },
{ "type": "Feature", "properties": { "OBJECTID": 215, "STNCODE": "HOM", "STNNAME": "Holland, Michigan", "ADDRESS1": "171 Lincoln Ave.", "ADDRESS2": null, "CITY": "Holland", "STATE": "MI", "ZIP": "49423", "STNTYPE": "RAIL", "STFIPS": "26" }, "geometry": { "type": "Point", "coordinates": [ -86.097777999654909, 42.789314000041145 ] } },
{ "type": "Feature", "properties": { "OBJECTID": 216, "STNCODE": "HOO", "STNNAME": "Hood River, Oregon", "ADDRESS1": "600 E. Marina Way", "ADDRESS2": "Greyhound Station", "CITY": "Hood River", "STATE": "OR", "ZIP": "97031", "STNTYPE": "BUS", "STFIPS": "41" }, "geometry": { "type": "Point", "coordinates": [ -121.522613999536418, 45.701209999641833 ] } },
{ "type": "Feature", "properties": { "OBJECTID": 217, "STNCODE": "HOS", "STNNAME": "Houston, Texas", "ADDRESS1": "902 Washington Ave.", "ADDRESS2": null, "CITY": "Houston", "STATE": "TX", "ZIP": "77002", "STNTYPE": "RAIL", "STFIPS": "48" }, "geometry": { "type": "Point", "coordinates": [ -95.366974000349785, 29.767189000372127 ] } },
{ "type": "Feature", "properties": { "OBJECTID": 218, "STNCODE": "HPT", "STNNAME": "High Point, North Carolina", "ADDRESS1": "100 West High St", "ADDRESS2": null, "CITY": "High Point", "STATE": "NC", "ZIP": "27260", "STNTYPE": "RAIL", "STFIPS": "37" }, "geometry": { "type": "Point", "coordinates": [ -80.005835999431781, 35.957507999294762 ] } },
{ "type": "Feature", "properties": { "OBJECTID": 219, "STNCODE": "HTN", "STNNAME": "Hammonton, New Jersey", "ADDRESS1": "Egg Harbor Rd & Line St.", "ADDRESS2": "New Jersey Transit Station", "CITY": "Hammonton", "STATE": "NJ", "ZIP": "08037", "STNTYPE": "OTHER", "STFIPS": "34" }, "geometry": { "type": "Point", "coordinates": [ -74.800490008806833, 39.633040019181578 ] } },
{ "type": "Feature", "properties": { "OBJECTID": 220, "STNCODE": "HUD", "STNNAME": "Hudson, New York", "ADDRESS1": "69 South Front St.", "ADDRESS2": null, "CITY": "Hudson", "STATE": "NY", "ZIP": "12534", "STNTYPE": "RAIL", "STFIPS": "36" }, "geometry": { "type": "Point", "coordinates": [ -73.798438999859911, 42.253082000234201 ] } },
{ "type": "Feature", "properties": { "OBJECTID": 221, "STNCODE": "KTC", "STNNAME": "Kettleman City, California", "ADDRESS1": "3300 Hubert Way", "ADDRESS2": "I-5 & Hwy 41 (Carl's Jr Restaurant)", "CITY": "Kettleman City", "STATE": "CA", "ZIP": "93239", "STNTYPE": "BUS", "STFIPS": "06" }, "geometry": { "type": "Point", "coordinates": [ -119.959488000770591, 35.984176999768749 ] } },
{ "type": "Feature", "properties": { "OBJECTID": 222, "STNCODE": "KTR", "STNNAME": "Kingstree, South Carolina", "ADDRESS1": "101 East Main St.", "ADDRESS2": null, "CITY": "Kingstree", "STATE": "SC", "ZIP": "29556-3425", "STNTYPE": "RAIL", "STFIPS": "45" }, "geometry": { "type": "Point", "coordinates": [ -79.829062999857513, 33.66437899969111 ] } },
{ "type": "Feature", "properties": { "OBJECTID": 223, "STNCODE": "KWD", "STNNAME": "Kirkwood, Missouri", "ADDRESS1": "110 West Argonne Dr.", "ADDRESS2": null, "CITY": "Kirkwood", "STATE": "MO", "ZIP": "63122-4202", "STNTYPE": "RAIL", "STFIPS": "29" }, "geometry": { "type": "Point", "coordinates": [ -90.407593000316695, 38.580883000050449 ] } },
{ "type": "Feature", "properties": { "OBJECTID": 224, "STNCODE": "LAB", "STNNAME": "Latrobe, Pennsylvania", "ADDRESS1": "329 McKinley Ave", "ADDRESS2": null, "CITY": "Latrobe", "STATE": "PA", "ZIP": "15650", "STNTYPE": "RAIL", "STFIPS": "42" }, "geometry": { "type": "Point", "coordinates": [ -79.385222999741586, 40.318339999991053 ] } },
{ "type": "Feature", "properties": { "OBJECTID": 225, "STNCODE": "LAE", "STNNAME": "La Grande, Oregon", "ADDRESS1": "63276 Oregon Highway 203", "ADDRESS2": "Flying J Plaza", "CITY": "La Grande", "STATE": "OR", "ZIP": "97850", "STNTYPE": "BUS", "STFIPS": "41" }, "geometry": { "type": "Point", "coordinates": [ -118.078018000230486, 45.325919999608345 ] } },
{ "type": "Feature", "properties": { "OBJECTID": 226, "STNCODE": "LAF", "STNNAME": "Lafayette, Indiana", "ADDRESS1": "200 North 2nd St.", "ADDRESS2": null, "CITY": "Lafayette", "STATE": "IN", "ZIP": "47901-1238", "STNTYPE": "RAIL", "STFIPS": "18" }, "geometry": { "type": "Point", "coordinates": [ -86.895034999265761, 40.421088999757558 ] } },
{ "type": "Feature", "properties": { "OBJECTID": 227, "STNCODE": "LAG", "STNNAME": "La Grange, Illinois", "ADDRESS1": "25 West Burlington St.", "ADDRESS2": null, "CITY": "La Grange", "STATE": "IL", "ZIP": "60525", "STNTYPE": "RAIL", "STFIPS": "17" }, "geometry": { "type": "Point", "coordinates": [ -87.869719999878043, 41.815902999723733 ] } },
{ "type": "Feature", "properties": { "OBJECTID": 228, "STNCODE": "LAJ", "STNNAME": "La Junta, Colorado", "ADDRESS1": "1 West First St.", "ADDRESS2": null, "CITY": "La Junta", "STATE": "CO", "ZIP": "81050", "STNTYPE": "RAIL", "STFIPS": "08" }, "geometry": { "type": "Point", "coordinates": [ -103.542495999990365, 37.988067999838393 ] } },
{ "type": "Feature", "properties": { "OBJECTID": 229, "STNCODE": "LAK", "STNNAME": "Lakeland, Florida", "ADDRESS1": "600 East Main Street", "ADDRESS2": null, "CITY": "Lakeland", "STATE": "FL", "ZIP": "33801-5036", "STNTYPE": "RAIL", "STFIPS": "12" }, "geometry": { "type": "Point", "coordinates": [ -81.951614000485677, 28.045654000831519 ] } },
{ "type": "Feature", "properties": { "OBJECTID": 230, "STNCODE": "LAP", "STNNAME": "La Plata, Missouri", "ADDRESS1": "535 N. Owensby St.", "ADDRESS2": "R.R. #1", "CITY": "La Plata", "STATE": "MO", "ZIP": "63549", "STNTYPE": "RAIL", "STFIPS": "29" }, "geometry": { "type": "Point", "coordinates": [ -92.485305999871969, 40.031405999687195 ] } },
{ "type": "Feature", "properties": { "OBJECTID": 231, "STNCODE": "LAS", "STNNAME": "Las Vegas International Airport, Nevada", "ADDRESS1": "5757 Wayne Newton Blvd", "ADDRESS2": "McCarran International Airport", "CITY": "Las Vegas", "STATE": "NV", "ZIP": "89111-5000", "STNTYPE": "BUS", "STFIPS": "32" }, "geometry": { "type": "Point", "coordinates": [ -115.148913904952735, 36.097856893880589 ] } },
{ "type": "Feature", "properties": { "OBJECTID": 232, "STNCODE": "LAU", "STNNAME": "Laurel, Mississippi", "ADDRESS1": "230 North Maple Street", "ADDRESS2": null, "CITY": "Laurel", "STATE": "MS", "ZIP": "39440", "STNTYPE": "RAIL", "STFIPS": "28" }, "geometry": { "type": "Point", "coordinates": [ -89.127838000323436, 31.692390000398234 ] } },
{ "type": "Feature", "properties": { "OBJECTID": 233, "STNCODE": "LAX", "STNNAME": "Los Angeles, California", "ADDRESS1": "800 North Alameda Street", "ADDRESS2": "Los Angeles Union Passenger Terminal", "CITY": "Los Angeles", "STATE": "CA", "ZIP": "90012-2902", "STNTYPE": "RAIL", "STFIPS": "06" }, "geometry": { "type": "Point", "coordinates": [ -118.236533999644337, 34.056297000306358 ] } },
{ "type": "Feature", "properties": { "OBJECTID": 234, "STNCODE": "LBC", "STNNAME": "Long Beach, California", "ADDRESS1": "601 North Long Beach Blvd.", "ADDRESS2": "Denny's Restaurant", "CITY": "Long Beach", "STATE": "CA", "ZIP": "90802-1323", "STNTYPE": "BUS", "STFIPS": "06" }, "geometry": { "type": "Point", "coordinates": [ -118.188559999644212, 33.774177999914798 ] } },
{ "type": "Feature", "properties": { "OBJECTID": 236, "STNCODE": "LCA", "STNNAME": "La Crescenta, California", "ADDRESS1": "Honolulu & Lowell Avenue", "ADDRESS2": "Near I-210", "CITY": "La Crescenta", "STATE": "CA", "ZIP": "91214", "STNTYPE": "BUS", "STFIPS": "06" }, "geometry": { "type": "Point", "coordinates": [ -118.265327000040998, 34.230685999659215 ] } },
{ "type": "Feature", "properties": { "OBJECTID": 237, "STNCODE": "LCH", "STNNAME": "Lake Charles, Louisiana", "ADDRESS1": "100 Ryan Street", "ADDRESS2": null, "CITY": "Lake Charles", "STATE": "LA", "ZIP": "70601-2152", "STNTYPE": "RAIL", "STFIPS": "22" }, "geometry": { "type": "Point", "coordinates": [ -93.214995999765563, 30.238084999922876 ] } },
{ "type": "Feature", "properties": { "OBJECTID": 238, "STNCODE": "LCN", "STNNAME": "Lincoln, Illinois", "ADDRESS1": "Broadway and North Chicago Sts.", "ADDRESS2": null, "CITY": "Lincoln", "STATE": "IL", "ZIP": "62656", "STNTYPE": "RAIL", "STFIPS": "17" }, "geometry": { "type": "Point", "coordinates": [ -89.363303999579898, 40.147537000532225 ] } },
{ "type": "Feature", "properties": { "OBJECTID": 239, "STNCODE": "LCR", "STNNAME": "Las Cruces, New Mexico", "ADDRESS1": "304 Wyatt Drive", "ADDRESS2": null, "CITY": "Las Cruces", "STATE": "NM", "ZIP": "88005", "STNTYPE": "BUS", "STFIPS": "35" }, "geometry": { "type": "Point", "coordinates": [ -106.774251671977026, 32.300963280331189 ] } },
{ "type": "Feature", "properties": { "OBJECTID": 240, "STNCODE": "LCS", "STNNAME": "Lancaster, California", "ADDRESS1": "44812 Sierra Highway", "ADDRESS2": "Metrolink Station", "CITY": "Lancaster", "STATE": "CA", "ZIP": "93534-3218", "STNTYPE": "BUS", "STFIPS": "06" }, "geometry": { "type": "Point", "coordinates": [ -118.136176999568818, 34.695511000732154 ] } },
{ "type": "Feature", "properties": { "OBJECTID": 241, "STNCODE": "LCV", "STNNAME": "Lincolnville, Maine", "ADDRESS1": "2512 Atlantic Highway", "ADDRESS2": "US Post Office", "CITY": "Lincolnville", "STATE": "ME", "ZIP": "04849", "STNTYPE": "BUS", "STFIPS": "23" }, "geometry": { "type": "Point", "coordinates": [ -69.008799301046849, 44.282071364501917 ] } },
{ "type": "Feature", "properties": { "OBJECTID": 242, "STNCODE": "LDB", "STNNAME": "Lordsburg, New Mexico", "ADDRESS1": "Center St. and S.P. Blvd.", "ADDRESS2": null, "CITY": "Lordsburg", "STATE": "NM", "ZIP": "88045", "STNTYPE": "RAIL", "STFIPS": "35" }, "geometry": { "type": "Point", "coordinates": [ -108.70632200045992, 32.350589999528893 ] } },
{ "type": "Feature", "properties": { "OBJECTID": 243, "STNCODE": "LDW", "STNNAME": "Lindenwold, New Jersey", "ADDRESS1": "Station Ave & White Horse Rd West", "ADDRESS2": "NJ Transit\/PATCO station", "CITY": "Somerdale", "STATE": "NJ", "ZIP": "08083", "STNTYPE": "OTHER", "STFIPS": "34" }, "geometry": { "type": "Point", "coordinates": [ -75.001876999523859, 39.83505600023426 ] } },
{ "type": "Feature", "properties": { "OBJECTID": 245, "STNCODE": "LEE", "STNNAME": "Lees Summit, Missouri", "ADDRESS1": "217 SW Main St.", "ADDRESS2": null, "CITY": "Lees Summit", "STATE": "MO", "ZIP": "64063", "STNTYPE": "RAIL", "STFIPS": "29" }, "geometry": { "type": "Point", "coordinates": [ -94.377646999909075, 38.912944999512149 ] } },
{ "type": "Feature", "properties": { "OBJECTID": 246, "STNCODE": "LEG", "STNNAME": "Leggett, California", "ADDRESS1": "69501 Highway 101 North", "ADDRESS2": "Price's Peg House", "CITY": "Leggett", "STATE": "CA", "ZIP": "95585-8911", "STNTYPE": "BUS", "STFIPS": "06" }, "geometry": { "type": "Point", "coordinates": [ -123.711173999980076, 39.850399000013908 ] } },
{ "type": "Feature", "properties": { "OBJECTID": 247, "STNCODE": "LEV", "STNNAME": "Leavenworth, Washington", "ADDRESS1": "Hwy 2 and 12th St.", "ADDRESS2": "Link Transit Park & Ride", "CITY": "Leavenworth", "STATE": "WA", "ZIP": "98826", "STNTYPE": "BUS", "STFIPS": "53" }, "geometry": { "type": "Point", "coordinates": [ -120.660324000152457, 47.596499999875164 ] } },
{ "type": "Feature", "properties": { "OBJECTID": 248, "STNCODE": "LEW", "STNNAME": "Lewistown, Pennsylvania", "ADDRESS1": "150 Helen Street", "ADDRESS2": null, "CITY": "Lewistown", "STATE": "PA", "ZIP": "17044", "STNTYPE": "RAIL", "STFIPS": "42" }, "geometry": { "type": "Point", "coordinates": [ -77.579216000617919, 40.588584999598083 ] } },
{ "type": "Feature", "properties": { "OBJECTID": 249, "STNCODE": "LEX", "STNNAME": "Lexington, North Carolina (Special Stop)", "ADDRESS1": "Center St. and railroad tracks", "ADDRESS2": "Lexington Barbecue Festival", "CITY": "Lexington", "STATE": "NC", "ZIP": "27292", "STNTYPE": "RAIL", "STFIPS": "37" }, "geometry": { "type": "Point", "coordinates": [ -80.249990658342199, 35.821481764471912 ] } },
{ "type": "Feature", "properties": { "OBJECTID": 250, "STNCODE": "LFT", "STNNAME": "Lafayette, Louisiana", "ADDRESS1": "133 East Grant St.", "ADDRESS2": "100 Lee Street", "CITY": "Lafayette", "STATE": "LA", "ZIP": "70501", "STNTYPE": "RAIL", "STFIPS": "22" }, "geometry": { "type": "Point", "coordinates": [ -92.014594999859298, 30.227345000171681 ] } },
{ "type": "Feature", "properties": { "OBJECTID": 252, "STNCODE": "LGM", "STNNAME": "Longmont, Colorado", "ADDRESS1": "623 Main St.", "ADDRESS2": "Martha Martin Business Center", "CITY": "Longmont", "STATE": "CO", "ZIP": "80501-4994", "STNTYPE": "BUS", "STFIPS": "08" }, "geometry": { "type": "Point", "coordinates": [ -105.101463000317153, 40.169350000102497 ] } },
{ "type": "Feature", "properties": { "OBJECTID": 253, "STNCODE": "LIB", "STNNAME": "Libby, Montana", "ADDRESS1": "100 Mineral Avenue", "ADDRESS2": null, "CITY": "Libby", "STATE": "MT", "ZIP": "59923-1933", "STNTYPE": "RAIL", "STFIPS": "30" }, "geometry": { "type": "Point", "coordinates": [ -115.548622000404976, 48.395148999826517 ] } },
{ "type": "Feature", "properties": { "OBJECTID": 254, "STNCODE": "LIV", "STNNAME": "Livermore, California", "ADDRESS1": "2500 Railroad Avenue", "ADDRESS2": "(Near 1st Street)", "CITY": "Livermore", "STATE": "CA", "ZIP": "94550-3011", "STNTYPE": "BUS", "STFIPS": "06" }, "geometry": { "type": "Point", "coordinates": [ -121.73662600048948, 37.703982999615789 ] } },
{ "type": "Feature", "properties": { "OBJECTID": 255, "STNCODE": "LKL", "STNNAME": "Lakeland, Florida", "ADDRESS1": "600 East Main Street", "ADDRESS2": null, "CITY": "Lakeland", "STATE": "FL", "ZIP": "33801-5036", "STNTYPE": "RAIL", "STFIPS": "12" }, "geometry": { "type": "Point", "coordinates": [ -81.951883862750037, 28.046777659661302 ] } },
{ "type": "Feature", "properties": { "OBJECTID": 256, "STNCODE": "LMC", "STNNAME": "Lemoore, California", "ADDRESS1": "300 E Street", "ADDRESS2": "Chamber of Commerce", "CITY": "Lemoore", "STATE": "CA", "ZIP": "93245-3663", "STNTYPE": "BUS", "STFIPS": "06" }, "geometry": { "type": "Point", "coordinates": [ -119.797545999847955, 36.286655000128178 ] } },
{ "type": "Feature", "properties": { "OBJECTID": 257, "STNCODE": "LMN", "STNNAME": "Lemoore (Naval Air Station), California", "ADDRESS1": "25th Ave and Highway 198", "ADDRESS2": null, "CITY": "Lemoore", "STATE": "CA", "ZIP": "93245", "STNTYPE": "BUS", "STFIPS": "06" }, "geometry": { "type": "Point", "coordinates": [ -119.906340204636706, 36.378514979782551 ] } },
{ "type": "Feature", "properties": { "OBJECTID": 259, "STNCODE": "LMR", "STNNAME": "Lamar, Colorado", "ADDRESS1": "Main & Beach Streets", "ADDRESS2": null, "CITY": "Lamar", "STATE": "CO", "ZIP": "81052", "STNTYPE": "RAIL", "STFIPS": "08" }, "geometry": { "type": "Point", "coordinates": [ -102.618293999968103, 38.089500000025055 ] } },
{ "type": "Feature", "properties": { "OBJECTID": 260, "STNCODE": "LMY", "STNNAME": "Lamy, New Mexico", "ADDRESS1": "Santa Fe County Road 33", "ADDRESS2": "152 Old Lamy Trail", "CITY": "Lamy", "STATE": "NM", "ZIP": "87540", "STNTYPE": "RAIL", "STFIPS": "35" }, "geometry": { "type": "Point", "coordinates": [ -105.884757999981673, 35.477485999779105 ] } },
{ "type": "Feature", "properties": { "OBJECTID": 261, "STNCODE": "LNC", "STNNAME": "Lancaster, Pennsylvania", "ADDRESS1": "53 McGovern Avenue", "ADDRESS2": null, "CITY": "Lancaster", "STATE": "PA", "ZIP": "17602", "STNTYPE": "RAIL", "STFIPS": "42" }, "geometry": { "type": "Point", "coordinates": [ -76.307587000339765, 40.053805999347446 ] } },
{ "type": "Feature", "properties": { "OBJECTID": 262, "STNCODE": "LNK", "STNNAME": "Lincoln, Nebraska", "ADDRESS1": "201 North 7th St.", "ADDRESS2": null, "CITY": "Lincoln", "STATE": "NE", "ZIP": "68508", "STNTYPE": "RAIL", "STFIPS": "31" }, "geometry": { "type": "Point", "coordinates": [ -96.710815000511843, 40.814671000666181 ] } },
{ "type": "Feature", "properties": { "OBJECTID": 263, "STNCODE": "LNN", "STNNAME": "Lincoln, New Hampshire", "ADDRESS1": "Main and Franklin Sts.", "ADDRESS2": "Munce's Konvenience Store\/Shell Station", "CITY": "Lincoln", "STATE": "NH", "ZIP": "03251", "STNTYPE": "BUS", "STFIPS": "33" }, "geometry": { "type": "Point", "coordinates": [ -71.676317912941272, 44.03756098864875 ] } },
{ "type": "Feature", "properties": { "OBJECTID": 264, "STNCODE": "LNS", "STNNAME": "East Lansing, Michigan", "ADDRESS1": "1240 South Harrison Road", "ADDRESS2": null, "CITY": "East Lansing", "STATE": "MI", "ZIP": "48823-5223", "STNTYPE": "RAIL", "STFIPS": "26" }, "geometry": { "type": "Point", "coordinates": [ -84.493546000147774, 42.719081999734556 ] } },
{ "type": "Feature", "properties": { "OBJECTID": 265, "STNCODE": "LNV", "STNNAME": "Laughlin, Nevada", "ADDRESS1": "2121 S. Casino Dr.", "ADDRESS2": "Tropicana Express Hotel & Casino", "CITY": "Laughlin", "STATE": "NV", "ZIP": "89029-1519", "STNTYPE": "BUS", "STFIPS": "32" }, "geometry": { "type": "Point", "coordinates": [ -114.573852999516305, 35.157066000295742 ] } },
{ "type": "Feature", "properties": { "OBJECTID": 266, "STNCODE": "LOD", "STNNAME": "Lodi, California", "ADDRESS1": "24 South Sacramento Street", "ADDRESS2": null, "CITY": "Lodi", "STATE": "CA", "ZIP": "95240", "STNTYPE": "RAIL", "STFIPS": "06" }, "geometry": { "type": "Point", "coordinates": [ -121.27159399976324, 38.133539999371521 ] } },
{ "type": "Feature", "properties": { "OBJECTID": 267, "STNCODE": "LOM", "STNNAME": "Lompoc, California", "ADDRESS1": "111 South I Street", "ADDRESS2": "Lompoc Visitor's Center", "CITY": "Lompoc", "STATE": "CA", "ZIP": "93436", "STNTYPE": "BUS", "STFIPS": "06" }, "geometry": { "type": "Point", "coordinates": [ -120.456832999643211, 34.643879000215748 ] } },
{ "type": "Feature", "properties": { "OBJECTID": 268, "STNCODE": "LOR", "STNNAME": "Lorton (Auto Train), Virginia", "ADDRESS1": "8006 Lorton Road", "ADDRESS2": null, "CITY": "Lorton", "STATE": "VA", "ZIP": "22079", "STNTYPE": "RAIL", "STFIPS": "51" }, "geometry": { "type": "Point", "coordinates": [ -77.22137500035592, 38.705962999892563 ] } },
{ "type": "Feature", "properties": { "OBJECTID": 269, "STNCODE": "LPD", "STNNAME": "Lake Placid, New York", "ADDRESS1": "1 Mirror Lake Drive", "ADDRESS2": "Hilton Hotel", "CITY": "Lake Placid", "STATE": "NY", "ZIP": "12946-1105", "STNTYPE": "BUS", "STFIPS": "36" }, "geometry": { "type": "Point", "coordinates": [ -73.984542999859514, 44.282169000299177 ] } },
{ "type": "Feature", "properties": { "OBJECTID": 270, "STNCODE": "LPE", "STNNAME": "Lapeer, Michigan", "ADDRESS1": "73 Howard St.", "ADDRESS2": null, "CITY": "Lapeer", "STATE": "MI", "ZIP": "48446-2515", "STNTYPE": "RAIL", "STFIPS": "26" }, "geometry": { "type": "Point", "coordinates": [ -83.30564900040099, 43.049628999478784 ] } },
{ "type": "Feature", "properties": { "OBJECTID": 271, "STNCODE": "LPN", "STNNAME": "La Pine, Oregon", "ADDRESS1": "16515 Reed Road", "ADDRESS2": "Shell Station", "CITY": "La Pine", "STATE": "OR", "ZIP": "97739", "STNTYPE": "BUS", "STFIPS": "41" }, "geometry": { "type": "Point", "coordinates": [ -121.499146000087819, 43.674640999682424 ] } },
{ "type": "Feature", "properties": { "OBJECTID": 272, "STNCODE": "LPS", "STNNAME": "Lompoc-Surf, California", "ADDRESS1": "Ocean Ave and Park Rd", "ADDRESS2": null, "CITY": "Surf", "STATE": "CA", "ZIP": "93437", "STNTYPE": "RAIL", "STFIPS": "06" }, "geometry": { "type": "Point", "coordinates": [ -120.602515999913408, 34.684460000128979 ] } },
{ "type": "Feature", "properties": { "OBJECTID": 273, "STNCODE": "LRC", "STNNAME": "Lawrence, Kansas", "ADDRESS1": "413 East 7th Street", "ADDRESS2": null, "CITY": "Lawrence", "STATE": "KS", "ZIP": "66044", "STNTYPE": "RAIL", "STFIPS": "20" }, "geometry": { "type": "Point", "coordinates": [ -95.231719999878067, 38.972217999860845 ] } },
{ "type": "Feature", "properties": { "OBJECTID": 274, "STNCODE": "LRK", "STNNAME": "Little Rock, Arkansas", "ADDRESS1": "1400 West Markham Street", "ADDRESS2": null, "CITY": "Little Rock", "STATE": "AR", "ZIP": "72201", "STNTYPE": "RAIL", "STFIPS": "05" }, "geometry": { "type": "Point", "coordinates": [ -92.286377000198343, 34.750350999898785 ] } },
{ "type": "Feature", "properties": { "OBJECTID": 275, "STNCODE": "LSE", "STNNAME": "LaCrosse, Wisconsin", "ADDRESS1": "St. Andrew and Caledonia Streets", "ADDRESS2": "601 St. Andrew Street", "CITY": "La Crosse", "STATE": "WI", "ZIP": "54601", "STNTYPE": "RAIL", "STFIPS": "55" }, "geometry": { "type": "Point", "coordinates": [ -91.246704831962404, 43.833214339869926 ] } },
{ "type": "Feature", "properties": { "OBJECTID": 276, "STNCODE": "LSV", "STNNAME": "Las Vegas, New Mexico", "ADDRESS1": "Railroad & Lincoln Streets", "ADDRESS2": null, "CITY": "Las Vegas", "STATE": "NM", "ZIP": "87701", "STNTYPE": "RAIL", "STFIPS": "35" }, "geometry": { "type": "Point", "coordinates": [ -105.212142999799539, 35.593300000394777 ] } },
{ "type": "Feature", "properties": { "OBJECTID": 277, "STNCODE": "LTL", "STNNAME": "Littleton, New Hampshire", "ADDRESS1": "336 Cottage St.", "ADDRESS2": "Irving Gas Station", "CITY": "Littleton", "STATE": "NH", "ZIP": "03561-4118", "STNTYPE": "BUS", "STFIPS": "33" }, "geometry": { "type": "Point", "coordinates": [ -71.769084102549243, 44.292538624158226 ] } },
{ "type": "Feature", "properties": { "OBJECTID": 278, "STNCODE": "LTR", "STNNAME": "Littlerock, California", "ADDRESS1": "7715 Pearblossom Hwy", "ADDRESS2": "Come & Save Market", "CITY": "Littlerock", "STATE": "CA", "ZIP": "93543-3038", "STNTYPE": "BUS", "STFIPS": "06" }, "geometry": { "type": "Point", "coordinates": [ -117.991935058556066, 34.521587085775423 ] } },
{ "type": "Feature", "properties": { "OBJECTID": 279, "STNCODE": "LTV", "STNNAME": "Laytonville, California", "ADDRESS1": "44900 Highway 101", "ADDRESS2": "Park N Takit Market", "CITY": "Laytonville", "STATE": "CA", "ZIP": "95454", "STNTYPE": "BUS", "STFIPS": "06" }, "geometry": { "type": "Point", "coordinates": [ -123.479416000847721, 39.685654000231978 ] } },
{ "type": "Feature", "properties": { "OBJECTID": 280, "STNCODE": "LVL", "STNNAME": "Louisville, Kentucky", "ADDRESS1": "720 West Muhammad Ali Blvd.", "ADDRESS2": "Greyhound Station", "CITY": "Louisville", "STATE": "KY", "ZIP": "40203-1917", "STNTYPE": "BUS", "STFIPS": "21" }, "geometry": { "type": "Point", "coordinates": [ -85.763397000271311, 38.252002999838624 ] } },
{ "type": "Feature", "properties": { "OBJECTID": 281, "STNCODE": "ABE", "STNNAME": "Aberdeen, Maryland", "ADDRESS1": "18 East Bel Air Ave.", "ADDRESS2": null, "CITY": "Aberdeen", "STATE": "MD", "ZIP": "21001-3701", "STNTYPE": "RAIL", "STFIPS": "24" }, "geometry": { "type": "Point", "coordinates": [ -76.163009999811607, 39.509460000378795 ] } },
{ "type": "Feature", "properties": { "OBJECTID": 282, "STNCODE": "ABN", "STNNAME": "Absecon, New Jersey", "ADDRESS1": "Shore Road and Ohio Ave", "ADDRESS2": null, "CITY": "Absecon", "STATE": "NJ", "ZIP": "08201", "STNTYPE": "OTHER", "STFIPS": "34" }, "geometry": { "type": "Point", "coordinates": [ -74.507537999878764, 39.428696000020409 ] } },
{ "type": "Feature", "properties": { "OBJECTID": 283, "STNCODE": "ABQ", "STNNAME": "Albuquerque, New Mexico", "ADDRESS1": "320 First Street SW", "ADDRESS2": null, "CITY": "Albuquerque", "STATE": "NM", "ZIP": "87102", "STNTYPE": "RAIL", "STFIPS": "35" }, "geometry": { "type": "Point", "coordinates": [ -106.646980000026929, 35.08293500005027 ] } },
{ "type": "Feature", "properties": { "OBJECTID": 284, "STNCODE": "ACA", "STNNAME": "Antioch-Pittsburg, California", "ADDRESS1": "100 I Street", "ADDRESS2": null, "CITY": "Antioch", "STATE": "CA", "ZIP": "94509-1122", "STNTYPE": "RAIL", "STFIPS": "06" }, "geometry": { "type": "Point", "coordinates": [ -121.815132000141659, 38.018085000022779 ] } },
{ "type": "Feature", "properties": { "OBJECTID": 285, "STNCODE": "ACY", "STNNAME": "Atlantic City, New Jersey", "ADDRESS1": "1 Atlantic City Expressway", "ADDRESS2": "New Jersey Transit Station", "CITY": "Atlantic City", "STATE": "NJ", "ZIP": "08401-4106", "STNTYPE": "OTHER", "STFIPS": "34" }, "geometry": { "type": "Point", "coordinates": [ -74.439865000669215, 39.363003000388233 ] } },
{ "type": "Feature", "properties": { "OBJECTID": 287, "STNCODE": "ADM", "STNNAME": "Ardmore, Oklahoma", "ADDRESS1": "251 East Main St.", "ADDRESS2": null, "CITY": "Ardmore", "STATE": "OK", "ZIP": "73401-7016", "STNTYPE": "RAIL", "STFIPS": "40" }, "geometry": { "type": "Point", "coordinates": [ -97.125412000163635, 34.17191299988508 ] } },
{ "type": "Feature", "properties": { "OBJECTID": 288, "STNCODE": "AHL", "STNNAME": "Ashland, Oregon", "ADDRESS1": "585 Siskiyou Blvd", "ADDRESS2": "Safeway Market", "CITY": "Ashland", "STATE": "OR", "ZIP": "97520", "STNTYPE": "BUS", "STFIPS": "41" }, "geometry": { "type": "Point", "coordinates": [ -122.697021000418829, 42.188118000045733 ] } },
{ "type": "Feature", "properties": { "OBJECTID": 289, "STNCODE": "AKY", "STNNAME": "Ashland, Kentucky", "ADDRESS1": "99 15th Street", "ADDRESS2": null, "CITY": "Ashland", "STATE": "KY", "ZIP": "41101", "STNTYPE": "RAIL", "STFIPS": "21" }, "geometry": { "type": "Point", "coordinates": [ -82.639473000378644, 38.480929999719763 ] } },
{ "type": "Feature", "properties": { "OBJECTID": 290, "STNCODE": "ALB", "STNNAME": "Albany\/Rensselaer, New York", "ADDRESS1": "525 East St.", "ADDRESS2": null, "CITY": "Rensselaer", "STATE": "NY", "ZIP": "12144-2310", "STNTYPE": "RAIL", "STFIPS": "36" }, "geometry": { "type": "Point", "coordinates": [ -73.741256999710743, 42.641647000009073 ] } },
{ "type": "Feature", "properties": { "OBJECTID": 291, "STNCODE": "ALC", "STNNAME": "Alliance, Ohio", "ADDRESS1": "820 East Main Street", "ADDRESS2": null, "CITY": "Alliance", "STATE": "OH", "ZIP": "44601", "STNTYPE": "RAIL", "STFIPS": "39" }, "geometry": { "type": "Point", "coordinates": [ -81.095810000730921, 40.921786999470498 ] } },
{ "type": "Feature", "properties": { "OBJECTID": 292, "STNCODE": "ALD", "STNNAME": "Alderson, West Virginia", "ADDRESS1": "1 C&O Plaza on Railroad Plaza", "ADDRESS2": null, "CITY": "Alderson", "STATE": "WV", "ZIP": "24910", "STNTYPE": "RAIL", "STFIPS": "54" }, "geometry": { "type": "Point", "coordinates": [ -80.6446460001128, 37.724239000229716 ] } },