{
"type": "FeatureCollection",
                                                                                
"features": [
{ "type": "Feature", "properties": { "ID": "100", "NAME": "NS CONNECTING LINE BULK TRANSFER TERMINAL-WAHSINGT", "TYPE": "RAIL", "MODE_TYPE": "RAIL & TRUCK", "CITY": "WASHINGTON PARK", "STATE": "IL", "FIPS": "17", "ZIP": "62204", "ZIP2": null, "PARCEL": 0.000000, "LATITUDE": 38.640520, "LONGITUDE": -90.092960, "GEOSOURCE": "GDT 2000 STREETS", "CREATEDATE": "2003\/04\/09", "CREATOR": "INDUS", "MODDATE": null, "ASSOC": "BNSF, NS, TRRA" }, "geometry": { "type": "Point", "coordinates": [ -90.09296, 38.64052 ] } },
{ "type": "Feature", "properties": { "ID": "1000", "NAME": "PROLINE-MONSON-MA", "TYPE": "RAIL", "MODE_TYPE": "RAIL & TRUCK", "CITY": "MONSON", "STATE": "MA", "FIPS": "25", "ZIP": "01057", "ZIP2": null, "PARCEL": 0.000000, "LATITUDE": 42.106800, "LONGITUDE": -72.312650, "GEOSOURCE": "GDT 2000 STREETS", "CREATEDATE": "2003\/04\/09", "CREATOR": "INDUS", "MODDATE": null, "ASSOC": "CN" }, "geometry": { "type": "Point", "coordinates": [ -72.31265, 42.1068 ] } },
{ "type": "Feature", "properties": { "ID": "1001", "NAME": "MAPLE LEAF DISTRIBUTION SERVICES INC-BONDSVILLE-MA", "TYPE": "RAIL", "MODE_TYPE": "RAIL & TRUCK", "CITY": "BONDSVILLE", "STATE": "MA", "FIPS": "25", "ZIP": "01009", "ZIP2": null, "PARCEL": 0.000000, "LATITUDE": 42.342820, "LONGITUDE": -71.054850, "GEOSOURCE": "GDT 2000 STREETS", "CREATEDATE": "2003\/04\/09", "CREATOR": "INDUS", "MODDATE": null, "ASSOC": "CN" }, "geometry": { "type": "Point", "coordinates": [ -71.05485, 42.34282 ] } },
{ "type": "Feature", "properties": { "ID": "1003", "NAME": "LARSEN INTERMODAL, INC.-METAIRIE-LA", "TYPE": "RAIL", "MODE_TYPE": "RAIL & TRUCK", "CITY": "METAIRIE", "STATE": "LA", "FIPS": "22", "ZIP": "70001", "ZIP2": null, "PARCEL": 0.000000, "LATITUDE": 29.978260, "LONGITUDE": -90.204710, "GEOSOURCE": "GDT 2000 STREETS", "CREATEDATE": "2003\/04\/09", "CREATOR": "INDUS", "MODDATE": null, "ASSOC": "CN" }, "geometry": { "type": "Point", "coordinates": [ -90.20471, 29.97826 ] } },
{ "type": "Feature", "properties": { "ID": "1004", "NAME": "INNOVATIVE WASTE SYSTEMS, INC-BATON ROUGE-LA", "TYPE": "RAIL", "MODE_TYPE": "RAIL & TRUCK", "CITY": "BATON ROUGE", "STATE": "LA", "FIPS": "22", "ZIP": "70807", "ZIP2": null, "PARCEL": 0.000000, "LATITUDE": 30.554500, "LONGITUDE": -91.199100, "GEOSOURCE": "GDT 2000 STREETS", "CREATEDATE": "2003\/04\/09", "CREATOR": "INDUS", "MODDATE": null, "ASSOC": "CN" }, "geometry": { "type": "Point", "coordinates": [ -91.1991, 30.5545 ] } },
{ "type": "Feature", "properties": { "ID": "1005", "NAME": "ACME TRANSFER-BATON ROUGE-LA", "TYPE": "RAIL", "MODE_TYPE": "RAIL & TRUCK", "CITY": "BATON ROUGE", "STATE": "LA", "FIPS": "22", "ZIP": null, "ZIP2": null, "PARCEL": 0.000000, "LATITUDE": 30.554500, "LONGITUDE": -91.199100, "GEOSOURCE": "GDT 2000 STREETS", "CREATEDATE": "2003\/04\/09", "CREATOR": "INDUS", "MODDATE": null, "ASSOC": "CN" }, "geometry": { "type": "Point", "coordinates": [ -91.1991, 30.5545 ] } },
{ "type": "Feature", "properties": { "ID": "1007", "NAME": "METRO PARK WAREHOUSING, INC.-KANSAS CITY-KS", "TYPE": "RAIL", "MODE_TYPE": "RAIL & TRUCK", "CITY": "KANSAS CITY", "STATE": "KS", "FIPS": "20", "ZIP": "66106", "ZIP2": null, "PARCEL": 0.000000, "LATITUDE": 39.080350, "LONGITUDE": -94.694100, "GEOSOURCE": "GDT 2000 STREETS", "CREATEDATE": "2003\/04\/09", "CREATOR": "INDUS", "MODDATE": null, "ASSOC": "CN" }, "geometry": { "type": "Point", "coordinates": [ -94.6941, 39.08035 ] } },
{ "type": "Feature", "properties": { "ID": "1008", "NAME": "VOSE INDUSTRIAL ENTERPRISES-WATERLOO-IA", "TYPE": "RAIL", "MODE_TYPE": "RAIL & TRUCK", "CITY": "WATERLOO", "STATE": "IA", "FIPS": "19", "ZIP": "50703", "ZIP2": null, "PARCEL": 0.000000, "LATITUDE": 42.541980, "LONGITUDE": -92.406640, "GEOSOURCE": "GDT 2000 STREETS", "CREATEDATE": "2003\/04\/09", "CREATOR": "INDUS", "MODDATE": null, "ASSOC": "CN" }, "geometry": { "type": "Point", "coordinates": [ -92.40664, 42.54198 ] } },
{ "type": "Feature", "properties": { "ID": "1009", "NAME": "POST-SCRIPT WAREHOUSE, INC.-NORWICH-CT", "TYPE": "RAIL", "MODE_TYPE": "RAIL & TRUCK", "CITY": "NORWICH", "STATE": "CT", "FIPS": "09", "ZIP": "06360", "ZIP2": null, "PARCEL": 0.000000, "LATITUDE": 41.526110, "LONGITUDE": -72.087930, "GEOSOURCE": "GDT 2000 STREETS", "CREATEDATE": "2003\/04\/09", "CREATOR": "INDUS", "MODDATE": null, "ASSOC": "CN" }, "geometry": { "type": "Point", "coordinates": [ -72.08793, 41.52611 ] } },
{ "type": "Feature", "properties": { "ID": "101", "NAME": "OWENSBORO RIVERPORT", "TYPE": "PORT", "MODE_TYPE": "TRUCK - PORT - RAIL", "CITY": "OWENSBORO", "STATE": "KY", "FIPS": "21", "ZIP": "42301", "ZIP2": "9267", "PARCEL": 0.000000, "LATITUDE": 37.795720, "LONGITUDE": -87.144250, "GEOSOURCE": "GDT 2000 STREETS", "CREATEDATE": "2003\/04\/09", "CREATOR": "INDUS", "MODDATE": null, "ASSOC": null }, "geometry": { "type": "Point", "coordinates": [ -87.14425, 37.79572 ] } },
{ "type": "Feature", "properties": { "ID": "1010", "NAME": "DIXIE PULP AND PAPER-TUSCALOOSA-AL", "TYPE": "RAIL", "MODE_TYPE": "RAIL & TRUCK", "CITY": "TUSCALOOSA", "STATE": "AL", "FIPS": "01", "ZIP": "35401", "ZIP2": null, "PARCEL": 0.000000, "LATITUDE": 33.211920, "LONGITUDE": -87.629100, "GEOSOURCE": "GDT 2000 STREETS", "CREATEDATE": "2003\/04\/09", "CREATOR": "INDUS", "MODDATE": null, "ASSOC": "CN" }, "geometry": { "type": "Point", "coordinates": [ -87.6291, 33.21192 ] } },
{ "type": "Feature", "properties": { "ID": "1011", "NAME": "GLOBAL MATERIALS SERVICES-MEMPHIS-TN", "TYPE": "RAIL", "MODE_TYPE": "RAIL & TRUCK", "CITY": "MEMPHIS", "STATE": "TN", "FIPS": "47", "ZIP": null, "ZIP2": null, "PARCEL": 0.000000, "LATITUDE": 35.098720, "LONGITUDE": -90.109440, "GEOSOURCE": "GDT 2000 STREETS", "CREATEDATE": "2003\/04\/09", "CREATOR": "INDUS", "MODDATE": null, "ASSOC": "CN" }, "geometry": { "type": "Point", "coordinates": [ -90.10944, 35.09872 ] } },
{ "type": "Feature", "properties": { "ID": "1012", "NAME": "COMMERCIAL TRANSLOAD OF MINNESOTA-FRIDLEY-MN", "TYPE": "RAIL", "MODE_TYPE": "RAIL & TRUCK", "CITY": "FRIDLEY", "STATE": "MN", "FIPS": "27", "ZIP": "55432", "ZIP2": null, "PARCEL": 0.000000, "LATITUDE": 45.097050, "LONGITUDE": -93.263340, "GEOSOURCE": "GDT 2000 STREETS", "CREATEDATE": "2003\/04\/09", "CREATOR": "INDUS", "MODDATE": null, "ASSOC": "CN" }, "geometry": { "type": "Point", "coordinates": [ -93.26334, 45.09705 ] } },
{ "type": "Feature", "properties": { "ID": "1013", "NAME": "WHITING DISTRIBUTION-RIVERVIEW (DETROIT)-MI", "TYPE": "RAIL", "MODE_TYPE": "RAIL & TRUCK", "CITY": "RIVERVIEW (DETROIT)", "STATE": "MI", "FIPS": "26", "ZIP": "48192", "ZIP2": null, "PARCEL": 0.000000, "LATITUDE": 42.184190, "LONGITUDE": -83.232750, "GEOSOURCE": "GDT 2000 STREETS", "CREATEDATE": "2003\/04\/09", "CREATOR": "INDUS", "MODDATE": null, "ASSOC": "CN" }, "geometry": { "type": "Point", "coordinates": [ -83.23275, 42.18419 ] } },
{ "type": "Feature", "properties": { "ID": "1014", "NAME": "SOUTH TEC DEVELOPMENT CORP-KANKAKEE-IL", "TYPE": "RAIL", "MODE_TYPE": "RAIL & TRUCK", "CITY": "KANKAKEE", "STATE": "IL", "FIPS": "17", "ZIP": "60901", "ZIP2": null, "PARCEL": 0.000000, "LATITUDE": 41.073130, "LONGITUDE": -87.869180, "GEOSOURCE": "GDT 2000 STREETS", "CREATEDATE": "2003\/04\/09", "CREATOR": "INDUS", "MODDATE": null, "ASSOC": "CN" }, "geometry": { "type": "Point", "coordinates": [ -87.86918, 41.07313 ] } },
{ "type": "Feature", "properties": { "ID": "1015", "NAME": "STELLAR-CHICAGO-IL", "TYPE": "RAIL", "MODE_TYPE": "RAIL & TRUCK", "CITY": "CHICAGO", "STATE": "IL", "FIPS": "17", "ZIP": "60632", "ZIP2": null, "PARCEL": 0.000000, "LATITUDE": 41.802410, "LONGITUDE": -87.708910, "GEOSOURCE": "GDT 2000 STREETS", "CREATEDATE": "2003\/04\/09", "CREATOR": "INDUS", "MODDATE": null, "ASSOC": "CN" }, "geometry": { "type": "Point", "coordinates": [ -87.70891, 41.80241 ] } },
{ "type": "Feature", "properties": { "ID": "1016", "NAME": "TRANSLOAD SERVICES, LLC-HARVEY-IL", "TYPE": "RAIL", "MODE_TYPE": "RAIL & TRUCK", "CITY": "HARVEY", "STATE": "IL", "FIPS": "17", "ZIP": null, "ZIP2": null, "PARCEL": 0.000000, "LATITUDE": 41.625010, "LONGITUDE": -87.660960, "GEOSOURCE": "GDT 2000 STREETS", "CREATEDATE": "2003\/04\/09", "CREATOR": "INDUS", "MODDATE": null, "ASSOC": "CN" }, "geometry": { "type": "Point", "coordinates": [ -87.66096, 41.62501 ] } },
{ "type": "Feature", "properties": { "ID": "1018", "NAME": "AUTOMATED PRODUCTS-AUTOMATED PRODUCTSMARSHFIELD-WI", "TYPE": "RAIL", "MODE_TYPE": "RAIL & TRUCK", "CITY": "MARSHFIELD", "STATE": "WI", "FIPS": "55", "ZIP": "54449", "ZIP2": "4607", "PARCEL": 0.000000, "LATITUDE": 44.654790, "LONGITUDE": -90.153040, "GEOSOURCE": "GDT 2000 STREETS", "CREATEDATE": "2003\/04\/09", "CREATOR": "INDUS", "MODDATE": null, "ASSOC": "CN" }, "geometry": { "type": "Point", "coordinates": [ -90.15304, 44.65479 ] } },
{ "type": "Feature", "properties": { "ID": "1020", "NAME": "PORT ARTHUR-TX", "TYPE": "RAIL", "MODE_TYPE": "RAIL & TRUCK", "CITY": "PORT ARTHUR", "STATE": "TX", "FIPS": "48", "ZIP": "77641", "ZIP2": null, "PARCEL": 0.000000, "LATITUDE": 29.866940, "LONGITUDE": -93.935970, "GEOSOURCE": "GDT 2000 STREETS", "CREATEDATE": "2003\/04\/09", "CREATOR": "INDUS", "MODDATE": null, "ASSOC": "CN" }, "geometry": { "type": "Point", "coordinates": [ -93.93597, 29.86694 ] } },
{ "type": "Feature", "properties": { "ID": "1021", "NAME": "LMS INTERNATIONAL-LAREDO-TX", "TYPE": "RAIL", "MODE_TYPE": "RAIL & TRUCK", "CITY": "LAREDO", "STATE": "TX", "FIPS": "48", "ZIP": "78044", "ZIP2": null, "PARCEL": 0.000000, "LATITUDE": 27.562600, "LONGITUDE": -99.507120, "GEOSOURCE": "GDT 2000 STREETS", "CREATEDATE": "2003\/04\/09", "CREATOR": "INDUS", "MODDATE": null, "ASSOC": "CN" }, "geometry": { "type": "Point", "coordinates": [ -99.50712, 27.5626 ] } },
{ "type": "Feature", "properties": { "ID": "1022", "NAME": "DALLAS WAREHOUSE AND RELOAD, LLC-DALLAS-TX", "TYPE": "RAIL", "MODE_TYPE": "RAIL & TRUCK", "CITY": "DALLAS", "STATE": "TX", "FIPS": "48", "ZIP": "75218", "ZIP2": null, "PARCEL": 0.000000, "LATITUDE": 32.861910, "LONGITUDE": -96.672230, "GEOSOURCE": "GDT 2000 STREETS", "CREATEDATE": "2003\/04\/09", "CREATOR": "INDUS", "MODDATE": null, "ASSOC": "CN" }, "geometry": { "type": "Point", "coordinates": [ -96.67223, 32.86191 ] } },
{ "type": "Feature", "properties": { "ID": "1023", "NAME": "SKIP'S INDUSTRIAL SALVAGE-CORPUS CHRISTI-TX", "TYPE": "RAIL", "MODE_TYPE": "RAIL & TRUCK", "CITY": "CORPUS CHRISTI", "STATE": "TX", "FIPS": "48", "ZIP": "78405", "ZIP2": null, "PARCEL": 0.000000, "LATITUDE": 27.785890, "LONGITUDE": -97.453090, "GEOSOURCE": "GDT 2000 STREETS", "CREATEDATE": "2003\/04\/09", "CREATOR": "INDUS", "MODDATE": null, "ASSOC": "CN" }, "geometry": { "type": "Point", "coordinates": [ -97.45309, 27.78589 ] } },
{ "type": "Feature", "properties": { "ID": "1024", "NAME": "GST (GREATER SOUTH TRANSPORTATION)MEMPHIS-TN", "TYPE": "RAIL", "MODE_TYPE": "RAIL & TRUCK", "CITY": "MEMPHIS", "STATE": "TN", "FIPS": "47", "ZIP": "38109", "ZIP2": "2408", "PARCEL": 0.000000, "LATITUDE": 35.085940, "LONGITUDE": -90.076980, "GEOSOURCE": "GDT 2000 STREETS", "CREATEDATE": "2003\/04\/09", "CREATOR": "INDUS", "MODDATE": null, "ASSOC": "CN" }, "geometry": { "type": "Point", "coordinates": [ -90.07698, 35.08594 ] } },
{ "type": "Feature", "properties": { "ID": "1026", "NAME": "TIER ONE DISTRIBUTION-SPRINGFIEL-OK", "TYPE": "RAIL", "MODE_TYPE": "RAIL & TRUCK", "CITY": "SPRINGFIELD", "STATE": "OH", "FIPS": "39", "ZIP": "45501", "ZIP2": null, "PARCEL": 0.000000, "LATITUDE": 39.913200, "LONGITUDE": -83.779200, "GEOSOURCE": "GDT 2000 STREETS", "CREATEDATE": "2003\/04\/09", "CREATOR": "INDUS", "MODDATE": null, "ASSOC": "CN" }, "geometry": { "type": "Point", "coordinates": [ -83.7792, 39.9132 ] } },
{ "type": "Feature", "properties": { "ID": "1027", "NAME": "WAREHOUSE ASSOCIATES-LIMA-OH", "TYPE": "RAIL", "MODE_TYPE": "RAIL & TRUCK", "CITY": "LIMA", "STATE": "OH", "FIPS": "39", "ZIP": "45805", "ZIP2": null, "PARCEL": 0.000000, "LATITUDE": 40.760840, "LONGITUDE": -84.089520, "GEOSOURCE": "GDT 2000 STREETS", "CREATEDATE": "2003\/04\/09", "CREATOR": "INDUS", "MODDATE": null, "ASSOC": "CN" }, "geometry": { "type": "Point", "coordinates": [ -84.08952, 40.76084 ] } },
{ "type": "Feature", "properties": { "ID": "10276", "NAME": "Emery Forwarding-Birmingham-AL", "TYPE": "AIR", "MODE_TYPE": "AIR & TRUCK", "CITY": "Birmingham", "STATE": "AL", "FIPS": "01", "ZIP": "35210", "ZIP2": null, "PARCEL": 0.000000, "LATITUDE": 33.548860, "LONGITUDE": -86.662920, "GEOSOURCE": "GDT 2001 STREETS", "CREATEDATE": "2003\/04\/09", "CREATOR": "INDUS", "MODDATE": null, "ASSOC": null }, "geometry": { "type": "Point", "coordinates": [ -86.66292, 33.54886 ] } },
{ "type": "Feature", "properties": { "ID": "10277", "NAME": "Emery Forwarding-Dothan-AL", "TYPE": "AIR", "MODE_TYPE": "AIR & TRUCK", "CITY": "Dothan", "STATE": "AL", "FIPS": "01", "ZIP": "35210", "ZIP2": null, "PARCEL": 0.000000, "LATITUDE": 33.548860, "LONGITUDE": -86.662920, "GEOSOURCE": "GDT 2001 STREETS", "CREATEDATE": "2003\/04\/09", "CREATOR": "INDUS", "MODDATE": null, "ASSOC": null }, "geometry": { "type": "Point", "coordinates": [ -86.66292, 33.54886 ] } },
{ "type": "Feature", "properties": { "ID": "10278", "NAME": "Emery Forwarding-Huntsville-AL", "TYPE": "AIR", "MODE_TYPE": "AIR & TRUCK", "CITY": "Huntsville", "STATE": "AL", "FIPS": "01", "ZIP": "35824", "ZIP2": null, "PARCEL": 0.000000, "LATITUDE": 34.646420, "LONGITUDE": -86.759390, "GEOSOURCE": "GDT 2001 STREETS", "CREATEDATE": "2003\/04\/09", "CREATOR": "INDUS", "MODDATE": null, "ASSOC": null }, "geometry": { "type": "Point", "coordinates": [ -86.75939, 34.64642 ] } },
{ "type": "Feature", "properties": { "ID": "1028", "NAME": "CN SOUTH BUFFALO DISTRIBUTION CENTER-LACKAWANA-NY", "TYPE": "RAIL", "MODE_TYPE": "RAIL & TRUCK", "CITY": "LACKAWANA", "STATE": "NY", "FIPS": "36", "ZIP": "14218", "ZIP2": null, "PARCEL": 0.000000, "LATITUDE": 42.823750, "LONGITUDE": -78.850110, "GEOSOURCE": "GDT 2000 STREETS", "CREATEDATE": "2003\/04\/09", "CREATOR": "INDUS", "MODDATE": null, "ASSOC": "CN" }, "geometry": { "type": "Point", "coordinates": [ -78.85011, 42.82375 ] } },
{ "type": "Feature", "properties": { "ID": "10281", "NAME": "Emery Forwarding-Montgomery-AL", "TYPE": "AIR", "MODE_TYPE": "AIR & TRUCK", "CITY": "Birmingham", "STATE": "AL", "FIPS": "01", "ZIP": "35210", "ZIP2": null, "PARCEL": 0.000000, "LATITUDE": 33.548860, "LONGITUDE": -86.662920, "GEOSOURCE": "GDT 2001 STREETS", "CREATEDATE": "2003\/04\/09", "CREATOR": "INDUS", "MODDATE": null, "ASSOC": null }, "geometry": { "type": "Point", "coordinates": [ -86.66292, 33.54886 ] } },
{ "type": "Feature", "properties": { "ID": "10282", "NAME": "Emery Forwarding-Anchorage-AK", "TYPE": "AIR", "MODE_TYPE": "AIR & TRUCK", "CITY": "Anchorage", "STATE": "AK", "FIPS": "02", "ZIP": "99502", "ZIP2": null, "PARCEL": 0.000000, "LATITUDE": 61.175360, "LONGITUDE": -149.968120, "GEOSOURCE": "GDT 2001 STREETS", "CREATEDATE": "2003\/04\/09", "CREATOR": "INDUS", "MODDATE": null, "ASSOC": null }, "geometry": { "type": "Point", "coordinates": [ -149.96812, 61.17536 ] } },
{ "type": "Feature", "properties": { "ID": "10283", "NAME": "Emery Forwarding-Fairbanks-AK", "TYPE": "AIR", "MODE_TYPE": "AIR & TRUCK", "CITY": "Fairbanks", "STATE": "AK", "FIPS": "02", "ZIP": "99502", "ZIP2": null, "PARCEL": 0.000000, "LATITUDE": 61.175360, "LONGITUDE": -149.968120, "GEOSOURCE": "GDT 2001 STREETS", "CREATEDATE": "2003\/04\/09", "CREATOR": "INDUS", "MODDATE": null, "ASSOC": null }, "geometry": { "type": "Point", "coordinates": [ -149.96812, 61.17536 ] } },
{ "type": "Feature", "properties": { "ID": "10284", "NAME": "Emery Customs Brokers-Tucson-AZ", "TYPE": "AIR", "MODE_TYPE": "AIR & TRUCK", "CITY": "Tucson", "STATE": "AZ", "FIPS": "04", "ZIP": "85706", "ZIP2": null, "PARCEL": 0.000000, "LATITUDE": 32.115780, "LONGITUDE": -110.929470, "GEOSOURCE": "GDT 2001 STREETS", "CREATEDATE": "2003\/04\/09", "CREATOR": "INDUS", "MODDATE": null, "ASSOC": null }, "geometry": { "type": "Point", "coordinates": [ -110.92947, 32.11578 ] } },
{ "type": "Feature", "properties": { "ID": "10285", "NAME": "Emery Forwarding-Phoenix-AZ", "TYPE": "AIR", "MODE_TYPE": "AIR & TRUCK", "CITY": "Phoenix", "STATE": "AZ", "FIPS": "04", "ZIP": "85040", "ZIP2": null, "PARCEL": 0.000000, "LATITUDE": 33.407000, "LONGITUDE": -112.018210, "GEOSOURCE": "GDT 2001 STREETS", "CREATEDATE": "2003\/04\/09", "CREATOR": "INDUS", "MODDATE": null, "ASSOC": null }, "geometry": { "type": "Point", "coordinates": [ -112.01821, 33.407 ] } },
{ "type": "Feature", "properties": { "ID": "10286", "NAME": "Emery Forwarding-Tucson-AZ", "TYPE": "AIR", "MODE_TYPE": "AIR & TRUCK", "CITY": "Tucson", "STATE": "AZ", "FIPS": "04", "ZIP": "85706", "ZIP2": null, "PARCEL": 0.000000, "LATITUDE": 32.115780, "LONGITUDE": -110.929470, "GEOSOURCE": "GDT 2001 STREETS", "CREATEDATE": "2003\/04\/09", "CREATOR": "INDUS", "MODDATE": null, "ASSOC": null }, "geometry": { "type": "Point", "coordinates": [ -110.92947, 32.11578 ] } },
{ "type": "Feature", "properties": { "ID": "10288", "NAME": "Emery Forwarding-Little Rock-AR", "TYPE": "AIR", "MODE_TYPE": "AIR & TRUCK", "CITY": "Little Rock", "STATE": "AR", "FIPS": "05", "ZIP": "72202", "ZIP2": null, "PARCEL": 0.000000, "LATITUDE": 34.738130, "LONGITUDE": -92.219800, "GEOSOURCE": "GDT 2001 STREETS", "CREATEDATE": "2003\/04\/09", "CREATOR": "INDUS", "MODDATE": null, "ASSOC": null }, "geometry": { "type": "Point", "coordinates": [ -92.2198, 34.73813 ] } },
{ "type": "Feature", "properties": { "ID": "1029", "NAME": "RELOAD, INC.-ST. LOUIS-MO", "TYPE": "RAIL", "MODE_TYPE": "RAIL & TRUCK", "CITY": "ST. LOUIS", "STATE": "MO", "FIPS": "29", "ZIP": "63110", "ZIP2": "2533", "PARCEL": 0.000000, "LATITUDE": 38.624610, "LONGITUDE": -90.242950, "GEOSOURCE": "GDT 2000 STREETS", "CREATEDATE": "2003\/04\/09", "CREATOR": "INDUS", "MODDATE": null, "ASSOC": "CN" }, "geometry": { "type": "Point", "coordinates": [ -90.24295, 38.62461 ] } },
{ "type": "Feature", "properties": { "ID": "10290", "NAME": "Emery Forwarding-Fresno-Ca", "TYPE": "AIR", "MODE_TYPE": "AIR & TRUCK", "CITY": "Mather", "STATE": "CA", "FIPS": "06", "ZIP": "95655", "ZIP2": null, "PARCEL": 0.000000, "LATITUDE": 38.557340, "LONGITUDE": -121.310700, "GEOSOURCE": "GDT 2001 STREETS", "CREATEDATE": "2003\/04\/09", "CREATOR": "INDUS", "MODDATE": null, "ASSOC": null }, "geometry": { "type": "Point", "coordinates": [ -121.3107, 38.55734 ] } },
{ "type": "Feature", "properties": { "ID": "10291", "NAME": "Emery Forwarding-Hayward-CA", "TYPE": "AIR", "MODE_TYPE": "AIR & TRUCK", "CITY": "Hayward", "STATE": "CA", "FIPS": "06", "ZIP": "94541", "ZIP2": null, "PARCEL": 0.000000, "LATITUDE": 37.677040, "LONGITUDE": -122.082990, "GEOSOURCE": "GDT 2001 STREETS", "CREATEDATE": "2003\/04\/09", "CREATOR": "INDUS", "MODDATE": null, "ASSOC": null }, "geometry": { "type": "Point", "coordinates": [ -122.08299, 37.67704 ] } },
{ "type": "Feature", "properties": { "ID": "10292", "NAME": "Emery Forwarding-Inglewood-CA", "TYPE": "AIR", "MODE_TYPE": "AIR & TRUCK", "CITY": "Inglewood", "STATE": "CA", "FIPS": "06", "ZIP": "90303", "ZIP2": null, "PARCEL": 0.000000, "LATITUDE": 33.945430, "LONGITUDE": -118.335170, "GEOSOURCE": "GDT 2001 STREETS", "CREATEDATE": "2003\/04\/09", "CREATOR": "INDUS", "MODDATE": null, "ASSOC": null }, "geometry": { "type": "Point", "coordinates": [ -118.33517, 33.94543 ] } },
{ "type": "Feature", "properties": { "ID": "10293", "NAME": "Emery Customs Brokers-Los Angelos-CA", "TYPE": "AIR", "MODE_TYPE": "AIR & TRUCK", "CITY": "Los Angeles", "STATE": "CA", "FIPS": "06", "ZIP": "90045", "ZIP2": null, "PARCEL": 0.000000, "LATITUDE": 33.945310, "LONGITUDE": -118.375970, "GEOSOURCE": "GDT 2001 STREETS", "CREATEDATE": "2003\/04\/09", "CREATOR": "INDUS", "MODDATE": null, "ASSOC": null }, "geometry": { "type": "Point", "coordinates": [ -118.37597, 33.94531 ] } },
{ "type": "Feature", "properties": { "ID": "10294", "NAME": "Emery Ocean Services-Los Angeles-Ca", "TYPE": "AIR", "MODE_TYPE": "AIR & TRUCK", "CITY": "Los Angeles", "STATE": "CA", "FIPS": "06", "ZIP": "90045", "ZIP2": null, "PARCEL": 0.000000, "LATITUDE": 33.945310, "LONGITUDE": -118.375970, "GEOSOURCE": "GDT 2001 STREETS", "CREATEDATE": "2003\/04\/09", "CREATOR": "INDUS", "MODDATE": null, "ASSOC": null }, "geometry": { "type": "Point", "coordinates": [ -118.37597, 33.94531 ] } },
{ "type": "Feature", "properties": { "ID": "10295", "NAME": "Emery Forwarding-Los Angeles-CA-Global Sales", "TYPE": "AIR", "MODE_TYPE": "AIR & TRUCK", "CITY": "Los Angeles", "STATE": "CA", "FIPS": "06", "ZIP": "90045", "ZIP2": null, "PARCEL": 0.000000, "LATITUDE": 33.945310, "LONGITUDE": -118.375970, "GEOSOURCE": "GDT 2001 STREETS", "CREATEDATE": "2003\/04\/09", "CREATOR": "INDUS", "MODDATE": null, "ASSOC": null }, "geometry": { "type": "Point", "coordinates": [ -118.37597, 33.94531 ] } },
{ "type": "Feature", "properties": { "ID": "10296", "NAME": "Emery Forwarding-Ontario-CA", "TYPE": "AIR", "MODE_TYPE": "AIR & TRUCK", "CITY": "Ontario", "STATE": "CA", "FIPS": "06", "ZIP": "91761", "ZIP2": null, "PARCEL": 0.000000, "LATITUDE": 34.037770, "LONGITUDE": -117.593330, "GEOSOURCE": "GDT 2001 STREETS", "CREATEDATE": "2003\/04\/09", "CREATOR": "INDUS", "MODDATE": null, "ASSOC": null }, "geometry": { "type": "Point", "coordinates": [ -117.59333, 34.03777 ] } },
{ "type": "Feature", "properties": { "ID": "10297", "NAME": "Emery Forwarding-San Diego-CA", "TYPE": "AIR", "MODE_TYPE": "AIR & TRUCK", "CITY": "San Diego", "STATE": "CA", "FIPS": "06", "ZIP": "92154", "ZIP2": null, "PARCEL": 0.000000, "LATITUDE": 32.551160, "LONGITUDE": -116.945170, "GEOSOURCE": "GDT 2001 STREETS", "CREATEDATE": "2003\/04\/09", "CREATOR": "INDUS", "MODDATE": null, "ASSOC": null }, "geometry": { "type": "Point", "coordinates": [ -116.94517, 32.55116 ] } },
{ "type": "Feature", "properties": { "ID": "10298", "NAME": "Emery Forwarding-Mather-CA", "TYPE": "AIR", "MODE_TYPE": "AIR & TRUCK", "CITY": "Mather", "STATE": "CA", "FIPS": "06", "ZIP": "95655", "ZIP2": null, "PARCEL": 0.000000, "LATITUDE": 38.557340, "LONGITUDE": -121.310700, "GEOSOURCE": "GDT 2001 STREETS", "CREATEDATE": "2003\/04\/09", "CREATOR": "INDUS", "MODDATE": null, "ASSOC": null }, "geometry": { "type": "Point", "coordinates": [ -121.3107, 38.55734 ] } },
{ "type": "Feature", "properties": { "ID": "103", "NAME": "PORT OF ORANGE", "TYPE": "PORT", "MODE_TYPE": "TRUCK - PORT - RAIL", "CITY": "ORANGE", "STATE": "TX", "FIPS": "48", "ZIP": "77630", "ZIP2": "2410", "PARCEL": 0.000000, "LATITUDE": 30.105600, "LONGITUDE": -93.752790, "GEOSOURCE": "GDT 2000 STREETS", "CREATEDATE": "2003\/04\/09", "CREATOR": "INDUS", "MODDATE": null, "ASSOC": null }, "geometry": { "type": "Point", "coordinates": [ -93.75279, 30.1056 ] } },
{ "type": "Feature", "properties": { "ID": "1030", "NAME": "RELOAD CENTRAL INC-KANSAS CITY-MO", "TYPE": "RAIL", "MODE_TYPE": "RAIL & TRUCK", "CITY": "KANSAS CITY", "STATE": "MO", "FIPS": "29", "ZIP": "64123", "ZIP2": "1969", "PARCEL": 0.000000, "LATITUDE": 39.112060, "LONGITUDE": -94.504390, "GEOSOURCE": "GDT 2000 STREETS", "CREATEDATE": "2003\/04\/09", "CREATOR": "INDUS", "MODDATE": null, "ASSOC": "CN" }, "geometry": { "type": "Point", "coordinates": [ -94.50439, 39.11206 ] } },
{ "type": "Feature", "properties": { "ID": "10300", "NAME": "Emery Customs Brokers-San Francisco-Ca", "TYPE": "AIR", "MODE_TYPE": "AIR & TRUCK", "CITY": "South San Francisco", "STATE": "CA", "FIPS": "06", "ZIP": "94080", "ZIP2": null, "PARCEL": 0.000000, "LATITUDE": 37.658580, "LONGITUDE": -122.405000, "GEOSOURCE": "GDT 2001 STREETS", "CREATEDATE": "2003\/04\/09", "CREATOR": "INDUS", "MODDATE": null, "ASSOC": null }, "geometry": { "type": "Point", "coordinates": [ -122.405, 37.65858 ] } },
{ "type": "Feature", "properties": { "ID": "10301", "NAME": "Emery Ocean Services-Redwood City-CA", "TYPE": "AIR", "MODE_TYPE": "AIR & TRUCK", "CITY": "Redwood City", "STATE": "CA", "FIPS": "06", "ZIP": "94065", "ZIP2": null, "PARCEL": 0.000000, "LATITUDE": 37.528580, "LONGITUDE": -122.261880, "GEOSOURCE": "GDT 2001 STREETS", "CREATEDATE": "2003\/04\/09", "CREATOR": "INDUS", "MODDATE": null, "ASSOC": null }, "geometry": { "type": "Point", "coordinates": [ -122.26188, 37.52858 ] } },
{ "type": "Feature", "properties": { "ID": "10302", "NAME": "Emery Forwarding-San Jose-CA", "TYPE": "AIR", "MODE_TYPE": "AIR & TRUCK", "CITY": "San Jose", "STATE": "CA", "FIPS": "06", "ZIP": "95131", "ZIP2": null, "PARCEL": 0.000000, "LATITUDE": 37.392240, "LONGITUDE": -121.914100, "GEOSOURCE": "GDT 2001 STREETS", "CREATEDATE": "2003\/04\/09", "CREATOR": "INDUS", "MODDATE": null, "ASSOC": null }, "geometry": { "type": "Point", "coordinates": [ -121.9141, 37.39224 ] } },
{ "type": "Feature", "properties": { "ID": "10303", "NAME": "Emery Forwarding-Tracy-CA", "TYPE": "AIR", "MODE_TYPE": "AIR & TRUCK", "CITY": "Tracy", "STATE": "CA", "FIPS": "06", "ZIP": "95377", "ZIP2": null, "PARCEL": 0.000000, "LATITUDE": 37.720570, "LONGITUDE": -121.521930, "GEOSOURCE": "GDT 2001 STREETS", "CREATEDATE": "2003\/04\/09", "CREATOR": "INDUS", "MODDATE": null, "ASSOC": null }, "geometry": { "type": "Point", "coordinates": [ -121.52193, 37.72057 ] } },
{ "type": "Feature", "properties": { "ID": "10304", "NAME": "Emery Forwarding-Colorado Springs-CO", "TYPE": "AIR", "MODE_TYPE": "AIR & TRUCK", "CITY": "Colorado Springs", "STATE": "CO", "FIPS": "08", "ZIP": "80916", "ZIP2": null, "PARCEL": 0.000000, "LATITUDE": 38.809800, "LONGITUDE": -104.725330, "GEOSOURCE": "GDT 2001 STREETS", "CREATEDATE": "2003\/04\/09", "CREATOR": "INDUS", "MODDATE": null, "ASSOC": null }, "geometry": { "type": "Point", "coordinates": [ -104.72533, 38.8098 ] } },
{ "type": "Feature", "properties": { "ID": "10306", "NAME": "Emery Forwarding-Denver-CO", "TYPE": "AIR", "MODE_TYPE": "AIR & TRUCK", "CITY": "Denver", "STATE": "CO", "FIPS": "08", "ZIP": "80239", "ZIP2": null, "PARCEL": 0.000000, "LATITUDE": 39.784120, "LONGITUDE": -104.848850, "GEOSOURCE": "GDT 2001 STREETS", "CREATEDATE": "2003\/04\/09", "CREATOR": "INDUS", "MODDATE": null, "ASSOC": null }, "geometry": { "type": "Point", "coordinates": [ -104.84885, 39.78412 ] } },
{ "type": "Feature", "properties": { "ID": "10307", "NAME": "Emery Customs Brokers-Denver-CO", "TYPE": "AIR", "MODE_TYPE": "AIR & TRUCK", "CITY": "Denver", "STATE": "CO", "FIPS": "08", "ZIP": "80239", "ZIP2": null, "PARCEL": 0.000000, "LATITUDE": 39.784120, "LONGITUDE": -104.848850, "GEOSOURCE": "GDT 2001 STREETS", "CREATEDATE": "2003\/04\/09", "CREATOR": "INDUS", "MODDATE": null, "ASSOC": null }, "geometry": { "type": "Point", "coordinates": [ -104.84885, 39.78412 ] } },
{ "type": "Feature", "properties": { "ID": "10308", "NAME": "Emery Forwarding-Windsor Locks-CT", "TYPE": "AIR", "MODE_TYPE": "AIR & TRUCK", "CITY": "Windsor Locks", "STATE": "CT", "FIPS": "09", "ZIP": "06096", "ZIP2": null, "PARCEL": 0.000000, "LATITUDE": 41.936820, "LONGITUDE": -72.670690, "GEOSOURCE": "GDT 2001 STREETS", "CREATEDATE": "2003\/04\/09", "CREATOR": "INDUS", "MODDATE": null, "ASSOC": null }, "geometry": { "type": "Point", "coordinates": [ -72.67069, 41.93682 ] } },
{ "type": "Feature", "properties": { "ID": "1031", "NAME": "CENTRAL MISSOURI RELOAD-KANSAS CITY-MO", "TYPE": "RAIL", "MODE_TYPE": "RAIL & TRUCK", "CITY": "KANSAS CITY", "STATE": "MO", "FIPS": "29", "ZIP": "64127", "ZIP2": null, "PARCEL": 0.000000, "LATITUDE": 39.095080, "LONGITUDE": -94.536350, "GEOSOURCE": "GDT 2000 STREETS", "CREATEDATE": "2003\/04\/09", "CREATOR": "INDUS", "MODDATE": null, "ASSOC": "CN" }, "geometry": { "type": "Point", "coordinates": [ -94.53635, 39.09508 ] } },
{ "type": "Feature", "properties": { "ID": "10310", "NAME": "Emery Forwarding-Washington-DC", "TYPE": "AIR", "MODE_TYPE": "AIR & TRUCK", "CITY": "Sterling", "STATE": "VA", "FIPS": "51", "ZIP": "20166", "ZIP2": null, "PARCEL": 0.000000, "LATITUDE": 38.978470, "LONGITUDE": -77.446830, "GEOSOURCE": "GDT 2001 STREETS", "CREATEDATE": "2003\/04\/09", "CREATOR": "INDUS", "MODDATE": null, "ASSOC": null }, "geometry": { "type": "Point", "coordinates": [ -77.44683, 38.97847 ] } },
{ "type": "Feature", "properties": { "ID": "10312", "NAME": "Emery Forwarding-Fort Lauderdale-FL", "TYPE": "AIR", "MODE_TYPE": "AIR & TRUCK", "CITY": "Fort Lauderdale", "STATE": "FL", "FIPS": "12", "ZIP": "33315", "ZIP2": null, "PARCEL": 0.000000, "LATITUDE": 26.081720, "LONGITUDE": -80.159550, "GEOSOURCE": "GDT 2001 STREETS", "CREATEDATE": "2003\/04\/09", "CREATOR": "INDUS", "MODDATE": null, "ASSOC": null }, "geometry": { "type": "Point", "coordinates": [ -80.15955, 26.08172 ] } },
{ "type": "Feature", "properties": { "ID": "10314", "NAME": "Emery Customs Brokers-Miami-FL", "TYPE": "AIR", "MODE_TYPE": "AIR & TRUCK", "CITY": "Miami", "STATE": "FL", "FIPS": "12", "ZIP": "33172", "ZIP2": null, "PARCEL": 0.000000, "LATITUDE": 25.802290, "LONGITUDE": -80.374770, "GEOSOURCE": "GDT 2001 STREETS", "CREATEDATE": "2003\/04\/09", "CREATOR": "INDUS", "MODDATE": null, "ASSOC": null }, "geometry": { "type": "Point", "coordinates": [ -80.37477, 25.80229 ] } },
{ "type": "Feature", "properties": { "ID": "10315", "NAME": "Emery Ocean Services-Miami-FL", "TYPE": "AIR", "MODE_TYPE": "AIR & TRUCK", "CITY": "Miami", "STATE": "FL", "FIPS": "12", "ZIP": "33172", "ZIP2": null, "PARCEL": 0.000000, "LATITUDE": 25.802290, "LONGITUDE": -80.374770, "GEOSOURCE": "GDT 2001 STREETS", "CREATEDATE": "2003\/04\/09", "CREATOR": "INDUS", "MODDATE": null, "ASSOC": null }, "geometry": { "type": "Point", "coordinates": [ -80.37477, 25.80229 ] } },
{ "type": "Feature", "properties": { "ID": "10316", "NAME": "Menlo Worldwide Logistics-Miami-FL", "TYPE": "AIR", "MODE_TYPE": "AIR & TRUCK", "CITY": "Miami", "STATE": "FL", "FIPS": "12", "ZIP": "33172", "ZIP2": null, "PARCEL": 0.000000, "LATITUDE": 25.802290, "LONGITUDE": -80.374770, "GEOSOURCE": "GDT 2001 STREETS", "CREATEDATE": "2003\/04\/09", "CREATOR": "INDUS", "MODDATE": null, "ASSOC": null }, "geometry": { "type": "Point", "coordinates": [ -80.37477, 25.80229 ] } },
{ "type": "Feature", "properties": { "ID": "10317", "NAME": "Emery Forwarding-Orlando-FL", "TYPE": "AIR", "MODE_TYPE": "AIR & TRUCK", "CITY": "Orlando", "STATE": "FL", "FIPS": "12", "ZIP": "32827", "ZIP2": null, "PARCEL": 0.000000, "LATITUDE": 28.423560, "LONGITUDE": -81.332680, "GEOSOURCE": "GDT 2001 STREETS", "CREATEDATE": "2003\/04\/09", "CREATOR": "INDUS", "MODDATE": null, "ASSOC": null }, "geometry": { "type": "Point", "coordinates": [ -81.33268, 28.42356 ] } },
{ "type": "Feature", "properties": { "ID": "1032", "NAME": "LEFLEUR PAPER COMPANY, LLC", "TYPE": "RAIL", "MODE_TYPE": "RAIL & TRUCK", "CITY": "RICHLAND", "STATE": "MS", "FIPS": "28", "ZIP": "39218", "ZIP2": null, "PARCEL": 0.000000, "LATITUDE": 32.264320, "LONGITUDE": -90.169430, "GEOSOURCE": "GDT 2000 STREETS", "CREATEDATE": "2003\/04\/09", "CREATOR": "INDUS", "MODDATE": null, "ASSOC": "CN" }, "geometry": { "type": "Point", "coordinates": [ -90.16943, 32.26432 ] } },
{ "type": "Feature", "properties": { "ID": "1033", "NAME": "NATCHEZ ADAM COUNTY PORT COMMISSION", "TYPE": "RAIL", "MODE_TYPE": "RAIL & TRUCK", "CITY": "NATCHEZ", "STATE": "MS", "FIPS": "28", "ZIP": null, "ZIP2": null, "PARCEL": 0.000000, "LATITUDE": 34.933650, "LONGITUDE": -89.669100, "GEOSOURCE": "GDT 2000 STREETS", "CREATEDATE": "2003\/04\/09", "CREATOR": "INDUS", "MODDATE": null, "ASSOC": "CN" }, "geometry": { "type": "Point", "coordinates": [ -89.6691, 34.93365 ] } },
{ "type": "Feature", "properties": { "ID": "1034", "NAME": "INTERSTATE MERCHANDISE WAREHOUSE INC.", "TYPE": "RAIL", "MODE_TYPE": "RAIL & TRUCK", "CITY": "MERIDIAN", "STATE": "MS", "FIPS": "28", "ZIP": "39301", "ZIP2": null, "PARCEL": 0.000000, "LATITUDE": 32.366190, "LONGITUDE": -88.693180, "GEOSOURCE": "GDT 2000 STREETS", "CREATEDATE": "2003\/04\/09", "CREATOR": "INDUS", "MODDATE": null, "ASSOC": "CN" }, "geometry": { "type": "Point", "coordinates": [ -88.69318, 32.36619 ] } },
{ "type": "Feature", "properties": { "ID": "10340", "NAME": "Emery Forwarding-Tampa-FL", "TYPE": "AIR", "MODE_TYPE": "AIR & TRUCK", "CITY": "Tampa", "STATE": "FL", "FIPS": "12", "ZIP": "33614", "ZIP2": null, "PARCEL": 0.000000, "LATITUDE": 27.974070, "LONGITUDE": -82.522330, "GEOSOURCE": "GDT 2001 STREETS", "CREATEDATE": "2003\/04\/09", "CREATOR": "INDUS", "MODDATE": null, "ASSOC": null }, "geometry": { "type": "Point", "coordinates": [ -82.52233, 27.97407 ] } },
{ "type": "Feature", "properties": { "ID": "10341", "NAME": "Emery Customs Brokers-Tampa-FL", "TYPE": "AIR", "MODE_TYPE": "AIR & TRUCK", "CITY": "Tampa", "STATE": "FL", "FIPS": "12", "ZIP": "33614", "ZIP2": null, "PARCEL": 0.000000, "LATITUDE": 27.974070, "LONGITUDE": -82.522330, "GEOSOURCE": "GDT 2001 STREETS", "CREATEDATE": "2003\/04\/09", "CREATOR": "INDUS", "MODDATE": null, "ASSOC": null }, "geometry": { "type": "Point", "coordinates": [ -82.52233, 27.97407 ] } },
{ "type": "Feature", "properties": { "ID": "10342", "NAME": "Emery Forwarding-Atlanta-GA", "TYPE": "AIR", "MODE_TYPE": "AIR & TRUCK", "CITY": "Forest Park", "STATE": "GA", "FIPS": "13", "ZIP": "30297", "ZIP2": null, "PARCEL": 0.000000, "LATITUDE": 33.601640, "LONGITUDE": -84.381940, "GEOSOURCE": "GDT 2001 STREETS", "CREATEDATE": "2003\/04\/09", "CREATOR": "INDUS", "MODDATE": null, "ASSOC": null }, "geometry": { "type": "Point", "coordinates": [ -84.38194, 33.60164 ] } },
{ "type": "Feature", "properties": { "ID": "10343", "NAME": "Emery Customs Brokers-Forest Park-GA", "TYPE": "AIR", "MODE_TYPE": "AIR & TRUCK", "CITY": "Forest Park", "STATE": "GA", "FIPS": "13", "ZIP": "3029", "ZIP2": null, "PARCEL": 0.000000, "LATITUDE": 33.600430, "LONGITUDE": -84.390330, "GEOSOURCE": "GDT 2001 STREETS", "CREATEDATE": "2003\/04\/09", "CREATOR": "INDUS", "MODDATE": null, "ASSOC": null }, "geometry": { "type": "Point", "coordinates": [ -84.39033, 33.60043 ] } },
{ "type": "Feature", "properties": { "ID": "10345", "NAME": "Emory Ocean Services-Forest Park-GA", "TYPE": "AIR", "MODE_TYPE": "AIR & TRUCK", "CITY": "Forest Park", "STATE": "GA", "FIPS": "13", "ZIP": "30297", "ZIP2": null, "PARCEL": 0.000000, "LATITUDE": 33.601640, "LONGITUDE": -84.381940, "GEOSOURCE": "GDT 2001 STREETS", "CREATEDATE": "2003\/04\/09", "CREATOR": "INDUS", "MODDATE": null, "ASSOC": null }, "geometry": { "type": "Point", "coordinates": [ -84.38194, 33.60164 ] } },
{ "type": "Feature", "properties": { "ID": "10346", "NAME": "Emery Forwarding-Honolulu-HI", "TYPE": "AIR", "MODE_TYPE": "AIR & TRUCK", "CITY": "Honolulu", "STATE": "HI", "FIPS": "15", "ZIP": "96819", "ZIP2": null, "PARCEL": 0.000000, "LATITUDE": 21.326800, "LONGITUDE": -157.911600, "GEOSOURCE": "GDT 2001 STREETS", "CREATEDATE": "2003\/04\/09", "CREATOR": "INDUS", "MODDATE": null, "ASSOC": null }, "geometry": { "type": "Point", "coordinates": [ -157.9116, 21.3268 ] } },
{ "type": "Feature", "properties": { "ID": "10348", "NAME": "Temple Trucking-Urbana-IL", "TYPE": "AIR", "MODE_TYPE": "AIR & TRUCK", "CITY": "Urbana", "STATE": "IL", "FIPS": "17", "ZIP": "61802", "ZIP2": null, "PARCEL": 0.000000, "LATITUDE": 40.138620, "LONGITUDE": -88.219800, "GEOSOURCE": "GDT 2001 STREETS", "CREATEDATE": "2003\/04\/09", "CREATOR": "INDUS", "MODDATE": null, "ASSOC": null }, "geometry": { "type": "Point", "coordinates": [ -88.2198, 40.13862 ] } },
{ "type": "Feature", "properties": { "ID": "10349", "NAME": "Emery Customs Brokers-Bensenville-IL", "TYPE": "AIR", "MODE_TYPE": "AIR & TRUCK", "CITY": "Bensenville", "STATE": "IL", "FIPS": "17", "ZIP": "60106", "ZIP2": null, "PARCEL": 0.000000, "LATITUDE": 41.957820, "LONGITUDE": -87.927860, "GEOSOURCE": "GDT 2001 STREETS", "CREATEDATE": "2003\/04\/09", "CREATOR": "INDUS", "MODDATE": null, "ASSOC": null }, "geometry": { "type": "Point", "coordinates": [ -87.92786, 41.95782 ] } },
{ "type": "Feature", "properties": { "ID": "1035", "NAME": "MID-AMERICAN DISTRIBUTION COMPANIES", "TYPE": "RAIL", "MODE_TYPE": "RAIL & TRUCK", "CITY": "MCCOMB", "STATE": "MS", "FIPS": "28", "ZIP": "39648", "ZIP2": null, "PARCEL": 0.000000, "LATITUDE": 31.243140, "LONGITUDE": -90.451290, "GEOSOURCE": "GDT 2000 STREETS", "CREATEDATE": "2003\/04\/09", "CREATOR": "INDUS", "MODDATE": null, "ASSOC": "CN" }, "geometry": { "type": "Point", "coordinates": [ -90.45129, 31.24314 ] } },
{ "type": "Feature", "properties": { "ID": "10351", "NAME": "Emery Ocean Services", "TYPE": "AIR", "MODE_TYPE": "AIR & TRUCK", "CITY": "Bensenville", "STATE": "IL", "FIPS": "17", "ZIP": "60106", "ZIP2": null, "PARCEL": 0.000000, "LATITUDE": 41.993170, "LONGITUDE": -87.959200, "GEOSOURCE": "GDT 2001 STREETS", "CREATEDATE": "2003\/04\/09", "CREATOR": "INDUS", "MODDATE": null, "ASSOC": null }, "geometry": { "type": "Point", "coordinates": [ -87.9592, 41.99317 ] } },
{ "type": "Feature", "properties": { "ID": "1037", "NAME": "LAKE SUPERIOR WAREHOUSING", "TYPE": "RAIL", "MODE_TYPE": "RAIL & TRUCK", "CITY": "DULUTH", "STATE": "MN", "FIPS": "27", "ZIP": "55802", "ZIP2": "2609", "PARCEL": 0.000000, "LATITUDE": 46.756130, "LONGITUDE": -92.101390, "GEOSOURCE": "GDT 2000 STREETS", "CREATEDATE": "2003\/04\/09", "CREATOR": "INDUS", "MODDATE": null, "ASSOC": "CN" }, "geometry": { "type": "Point", "coordinates": [ -92.10139, 46.75613 ] } },
{ "type": "Feature", "properties": { "ID": "10374", "NAME": "Emery Forwarding-Bensenville-IL", "TYPE": "AIR", "MODE_TYPE": "AIR & TRUCK", "CITY": "Bensenville", "STATE": "IL", "FIPS": "17", "ZIP": "60106", "ZIP2": null, "PARCEL": 0.000000, "LATITUDE": 41.959420, "LONGITUDE": -87.928660, "GEOSOURCE": "GDT 2001 STREETS", "CREATEDATE": "2003\/04\/09", "CREATOR": "INDUS", "MODDATE": null, "ASSOC": null }, "geometry": { "type": "Point", "coordinates": [ -87.92866, 41.95942 ] } },
{ "type": "Feature", "properties": { "ID": "10380", "NAME": "Emery Forwarding-Bensenville-IL-Global Sales", "TYPE": "AIR", "MODE_TYPE": "AIR & TRUCK", "CITY": "Bensenville", "STATE": "IL", "FIPS": "17", "ZIP": "60106", "ZIP2": null, "PARCEL": 0.000000, "LATITUDE": 41.957820, "LONGITUDE": -87.927860, "GEOSOURCE": "GDT 2001 STREETS", "CREATEDATE": "2003\/04\/09", "CREATOR": "INDUS", "MODDATE": null, "ASSOC": null }, "geometry": { "type": "Point", "coordinates": [ -87.92786, 41.95782 ] } },
{ "type": "Feature", "properties": { "ID": "10382", "NAME": "Emery Forwarding-Bridgeview-IL", "TYPE": "AIR", "MODE_TYPE": "AIR & TRUCK", "CITY": "Bridgeview", "STATE": "IL", "FIPS": "17", "ZIP": "60455", "ZIP2": null, "PARCEL": 0.000000, "LATITUDE": 41.704270, "LONGITUDE": -87.801770, "GEOSOURCE": "GDT 2001 STREETS", "CREATEDATE": "2003\/04\/09", "CREATOR": "INDUS", "MODDATE": null, "ASSOC": null }, "geometry": { "type": "Point", "coordinates": [ -87.80177, 41.70427 ] } },
{ "type": "Feature", "properties": { "ID": "1039", "NAME": "K AND K WAREHOUSING-MENOMINEE-MI", "TYPE": "RAIL", "MODE_TYPE": "RAIL & TRUCK", "CITY": "MENOMINEE", "STATE": "MI", "FIPS": "26", "ZIP": "49858", "ZIP2": null, "PARCEL": 0.000000, "LATITUDE": 45.101750, "LONGITUDE": -87.607760, "GEOSOURCE": "GDT 2000 STREETS", "CREATEDATE": "2003\/04\/09", "CREATOR": "INDUS", "MODDATE": null, "ASSOC": "CN" }, "geometry": { "type": "Point", "coordinates": [ -87.60776, 45.10175 ] } },
{ "type": "Feature", "properties": { "ID": "10390", "NAME": "Emery Forwarding-Moline-IL", "TYPE": "AIR", "MODE_TYPE": "AIR & TRUCK", "CITY": "Moline", "STATE": "IL", "FIPS": "17", "ZIP": "61265", "ZIP2": null, "PARCEL": 0.000000, "LATITUDE": 41.464340, "LONGITUDE": -90.456230, "GEOSOURCE": "GDT 2001 STREETS", "CREATEDATE": "2003\/04\/09", "CREATOR": "INDUS", "MODDATE": null, "ASSOC": null }, "geometry": { "type": "Point", "coordinates": [ -90.45623, 41.46434 ] } },
{ "type": "Feature", "properties": { "ID": "10396", "NAME": "Emery Forwarding-Peoria-IL", "TYPE": "AIR", "MODE_TYPE": "AIR & TRUCK", "CITY": "Peoria", "STATE": "IL", "FIPS": "17", "ZIP": "61607", "ZIP2": null, "PARCEL": 0.000000, "LATITUDE": 40.655950, "LONGITUDE": -89.681680, "GEOSOURCE": "GDT 2001 STREETS", "CREATEDATE": "2003\/04\/09", "CREATOR": "INDUS", "MODDATE": null, "ASSOC": null }, "geometry": { "type": "Point", "coordinates": [ -89.68168, 40.65595 ] } },
{ "type": "Feature", "properties": { "ID": "10397", "NAME": "Emery Forwarding-Rockford-Il", "TYPE": "AIR", "MODE_TYPE": "AIR & TRUCK", "CITY": "Rockford", "STATE": "IL", "FIPS": "17", "ZIP": "61109", "ZIP2": null, "PARCEL": 0.000000, "LATITUDE": 42.186940, "LONGITUDE": -89.100540, "GEOSOURCE": "GDT 2001 STREETS", "CREATEDATE": "2003\/04\/09", "CREATOR": "INDUS", "MODDATE": null, "ASSOC": null }, "geometry": { "type": "Point", "coordinates": [ -89.10054, 42.18694 ] } },
{ "type": "Feature", "properties": { "ID": "104", "NAME": "SUPERIOR BOARD OF HARBOR COMMISSIONERS", "TYPE": "PORT", "MODE_TYPE": "TRUCK - PORT - RAIL", "CITY": "SUPERIOR", "STATE": "WI", "FIPS": "55", "ZIP": "54880", "ZIP2": null, "PARCEL": 0.000000, "LATITUDE": 46.721560, "LONGITUDE": -92.097740, "GEOSOURCE": "GDT 2000 STREETS", "CREATEDATE": "2003\/04\/09", "CREATOR": "INDUS", "MODDATE": null, "ASSOC": "BN, CNW, DMIR, DWP, SOO" }, "geometry": { "type": "Point", "coordinates": [ -92.09774, 46.72156 ] } },
{ "type": "Feature", "properties": { "ID": "1040", "NAME": "LEWIS C HOWARD INC", "TYPE": "RAIL", "MODE_TYPE": "RAIL & TRUCK", "CITY": "KALAMAZOO", "STATE": "MI", "FIPS": "26", "ZIP": "49001", "ZIP2": null, "PARCEL": 0.000000, "LATITUDE": 42.283600, "LONGITUDE": -85.572190, "GEOSOURCE": "GDT 2000 STREETS", "CREATEDATE": "2003\/04\/09", "CREATOR": "INDUS", "MODDATE": null, "ASSOC": "CN" }, "geometry": { "type": "Point", "coordinates": [ -85.57219, 42.2836 ] } },
{ "type": "Feature", "properties": { "ID": "1041", "NAME": "MIDWEST TIMBER", "TYPE": "RAIL", "MODE_TYPE": "RAIL & TRUCK", "CITY": "EDWARDSBURG", "STATE": "MI", "FIPS": "26", "ZIP": null, "ZIP2": null, "PARCEL": 0.000000, "LATITUDE": 44.857900, "LONGITUDE": -84.653690, "GEOSOURCE": "GDT 2000 STREETS", "CREATEDATE": "2003\/04\/09", "CREATOR": "INDUS", "MODDATE": null, "ASSOC": "CN" }, "geometry": { "type": "Point", "coordinates": [ -84.65369, 44.8579 ] } },
{ "type": "Feature", "properties": { "ID": "1042", "NAME": "CN LUMBER RELOAD-DETROIT-MI", "TYPE": "RAIL", "MODE_TYPE": "RAIL & TRUCK", "CITY": "DETROIT", "STATE": "MI", "FIPS": "26", "ZIP": "48234", "ZIP2": null, "PARCEL": 0.000000, "LATITUDE": 42.441550, "LONGITUDE": -83.013940, "GEOSOURCE": "GDT 2000 STREETS", "CREATEDATE": "2003\/04\/09", "CREATOR": "INDUS", "MODDATE": null, "ASSOC": "CN" }, "geometry": { "type": "Point", "coordinates": [ -83.01394, 42.44155 ] } },
{ "type": "Feature", "properties": { "ID": "10421", "NAME": "Emery Forwarding-Evansville-IN", "TYPE": "AIR", "MODE_TYPE": "AIR & TRUCK", "CITY": "Evansville", "STATE": "IN", "FIPS": "18", "ZIP": "47715", "ZIP2": null, "PARCEL": 0.000000, "LATITUDE": 38.000560, "LONGITUDE": -87.485730, "GEOSOURCE": "GDT 2001 STREETS", "CREATEDATE": "2003\/04\/09", "CREATOR": "INDUS", "MODDATE": null, "ASSOC": null }, "geometry": { "type": "Point", "coordinates": [ -87.48573, 38.00056 ] } },
{ "type": "Feature", "properties": { "ID": "10422", "NAME": "Emery Forwarding-Fort Wayne-IN", "TYPE": "AIR", "MODE_TYPE": "AIR & TRUCK", "CITY": "Fort Wayne", "STATE": "IN", "FIPS": "18", "ZIP": "46809", "ZIP2": null, "PARCEL": 0.000000, "LATITUDE": 40.996220, "LONGITUDE": -85.196270, "GEOSOURCE": "GDT 2001 STREETS", "CREATEDATE": "2003\/04\/09", "CREATOR": "INDUS", "MODDATE": null, "ASSOC": null }, "geometry": { "type": "Point", "coordinates": [ -85.19627, 40.99622 ] } },
{ "type": "Feature", "properties": { "ID": "10425", "NAME": "Emery Forwarding-Indianapolis-IN", "TYPE": "AIR", "MODE_TYPE": "AIR & TRUCK", "CITY": "Indianapolis", "STATE": "IN", "FIPS": "18", "ZIP": "46241", "ZIP2": null, "PARCEL": 0.000000, "LATITUDE": 39.749680, "LONGITUDE": -86.285560, "GEOSOURCE": "GDT 2001 STREETS", "CREATEDATE": "2003\/04\/09", "CREATOR": "INDUS", "MODDATE": null, "ASSOC": null }, "geometry": { "type": "Point", "coordinates": [ -86.28556, 39.74968 ] } },
{ "type": "Feature", "properties": { "ID": "10436", "NAME": "Emery Forwarding-South Bend-IN", "TYPE": "AIR", "MODE_TYPE": "AIR & TRUCK", "CITY": "South Bend", "STATE": "IN", "FIPS": "18", "ZIP": "46628", "ZIP2": null, "PARCEL": 0.000000, "LATITUDE": 41.692120, "LONGITUDE": -86.295740, "GEOSOURCE": "GDT 2001 STREETS", "CREATEDATE": "2003\/04\/09", "CREATOR": "INDUS", "MODDATE": null, "ASSOC": null }, "geometry": { "type": "Point", "coordinates": [ -86.29574, 41.69212 ] } },
{ "type": "Feature", "properties": { "ID": "10446", "NAME": "Emery Forwarding-Des Moines-IA", "TYPE": "AIR", "MODE_TYPE": "AIR & TRUCK", "CITY": "Des Moines", "STATE": "IA", "FIPS": "19", "ZIP": "50321", "ZIP2": null, "PARCEL": 0.000000, "LATITUDE": 41.540940, "LONGITUDE": -93.653950, "GEOSOURCE": "GDT 2001 STREETS", "CREATEDATE": "2003\/04\/09", "CREATOR": "INDUS", "MODDATE": null, "ASSOC": null }, "geometry": { "type": "Point", "coordinates": [ -93.65395, 41.54094 ] } },
{ "type": "Feature", "properties": { "ID": "1045", "NAME": "MURPHY BONDED WAREHOUSE", "TYPE": "RAIL", "MODE_TYPE": "RAIL & TRUCK", "CITY": "SHREVEPORT", "STATE": "LA", "FIPS": "22", "ZIP": "71108", "ZIP2": null, "PARCEL": 0.000000, "LATITUDE": 32.456380, "LONGITUDE": -93.776620, "GEOSOURCE": "GDT 2000 STREETS", "CREATEDATE": "2003\/04\/09", "CREATOR": "INDUS", "MODDATE": null, "ASSOC": "CN" }, "geometry": { "type": "Point", "coordinates": [ -93.77662, 32.45638 ] } },
{ "type": "Feature", "properties": { "ID": "10456", "NAME": "Menlo Worldwide Expedite!-Overland Park-KS", "TYPE": "AIR", "MODE_TYPE": "AIR & TRUCK", "CITY": "Overland Park", "STATE": "KS", "FIPS": "20", "ZIP": "66210", "ZIP2": null, "PARCEL": 0.000000, "LATITUDE": 38.930460, "LONGITUDE": -94.677030, "GEOSOURCE": "GDT 2001 STREETS", "CREATEDATE": "2003\/04\/09", "CREATOR": "INDUS", "MODDATE": null, "ASSOC": null }, "geometry": { "type": "Point", "coordinates": [ -94.67703, 38.93046 ] } },
{ "type": "Feature", "properties": { "ID": "1046", "NAME": "MONROE WAREHOUSE CO.", "TYPE": "RAIL", "MODE_TYPE": "RAIL & TRUCK", "CITY": "MONROE", "STATE": "LA", "FIPS": "22", "ZIP": "71202", "ZIP2": null, "PARCEL": 0.000000, "LATITUDE": 32.484050, "LONGITUDE": -92.109220, "GEOSOURCE": "GDT 2000 STREETS", "CREATEDATE": "2003\/04\/09", "CREATOR": "INDUS", "MODDATE": null, "ASSOC": "CN" }, "geometry": { "type": "Point", "coordinates": [ -92.10922, 32.48405 ] } },
{ "type": "Feature", "properties": { "ID": "1047", "NAME": "AGWAY SYSTEMS INC.", "TYPE": "RAIL", "MODE_TYPE": "RAIL & TRUCK", "CITY": "BATON ROUGE", "STATE": "LA", "FIPS": "22", "ZIP": "70807", "ZIP2": "1519", "PARCEL": 0.000000, "LATITUDE": 30.565610, "LONGITUDE": -91.176480, "GEOSOURCE": "GDT 2000 STREETS", "CREATEDATE": "2003\/04\/09", "CREATOR": "INDUS", "MODDATE": null, "ASSOC": "CN" }, "geometry": { "type": "Point", "coordinates": [ -91.17648, 30.56561 ] } },
{ "type": "Feature", "properties": { "ID": "1048", "NAME": "ROBERTS AND DYBDAHL INC.", "TYPE": "RAIL", "MODE_TYPE": "RAIL & TRUCK", "CITY": "WATERLOO", "STATE": "IA", "FIPS": "19", "ZIP": "50703", "ZIP2": "2326", "PARCEL": 0.000000, "LATITUDE": 42.521160, "LONGITUDE": -92.350120, "GEOSOURCE": "GDT 2000 STREETS", "CREATEDATE": "2003\/04\/09", "CREATOR": "INDUS", "MODDATE": null, "ASSOC": "CN" }, "geometry": { "type": "Point", "coordinates": [ -92.35012, 42.52116 ] } },
{ "type": "Feature", "properties": { "ID": "10483", "NAME": "Menlo Worldwide Expedite!-Vandalia-OH", "TYPE": "AIR", "MODE_TYPE": "AIR & TRUCK", "CITY": "Vandalia", "STATE": "OH", "FIPS": "39", "ZIP": "45377", "ZIP2": null, "PARCEL": 0.000000, "LATITUDE": 39.898360, "LONGITUDE": -84.226430, "GEOSOURCE": "GDT 2001 STREETS", "CREATEDATE": "2003\/04\/09", "CREATOR": "INDUS", "MODDATE": null, "ASSOC": null }, "geometry": { "type": "Point", "coordinates": [ -84.22643, 39.89836 ] } },
{ "type": "Feature", "properties": { "ID": "10484", "NAME": "Emery Forwarding-Witchita-KS", "TYPE": "AIR", "MODE_TYPE": "AIR & TRUCK", "CITY": "Witchita", "STATE": "KS", "FIPS": "20", "ZIP": "67209", "ZIP2": null, "PARCEL": 0.000000, "LATITUDE": 37.657190, "LONGITUDE": -97.430970, "GEOSOURCE": "GDT 2001 STREETS", "CREATEDATE": "2003\/04\/09", "CREATOR": "INDUS", "MODDATE": null, "ASSOC": null }, "geometry": { "type": "Point", "coordinates": [ -97.43097, 37.65719 ] } },
{ "type": "Feature", "properties": { "ID": "10485", "NAME": "Emery Forwarding-Lexington-KY", "TYPE": "AIR", "MODE_TYPE": "AIR & TRUCK", "CITY": "Lexington", "STATE": "KY", "FIPS": "21", "ZIP": "40511", "ZIP2": null, "PARCEL": 0.000000, "LATITUDE": 38.075530, "LONGITUDE": -84.544960, "GEOSOURCE": "GDT 2001 STREETS", "CREATEDATE": "2003\/04\/09", "CREATOR": "INDUS", "MODDATE": null, "ASSOC": null }, "geometry": { "type": "Point", "coordinates": [ -84.54496, 38.07553 ] } },
{ "type": "Feature", "properties": { "ID": "10486", "NAME": "Emery Customs Brokers-Lexington-KY", "TYPE": "AIR", "MODE_TYPE": "AIR & TRUCK", "CITY": "Lexington", "STATE": "KY", "FIPS": "21", "ZIP": "40511", "ZIP2": null, "PARCEL": 0.000000, "LATITUDE": 38.075530, "LONGITUDE": -84.544960, "GEOSOURCE": "GDT 2001 STREETS", "CREATEDATE": "2003\/04\/09", "CREATOR": "INDUS", "MODDATE": null, "ASSOC": null }, "geometry": { "type": "Point", "coordinates": [ -84.54496, 38.07553 ] } },
{ "type": "Feature", "properties": { "ID": "10487", "NAME": "Emery Forwarding-Louisville-KY", "TYPE": "AIR", "MODE_TYPE": "AIR & TRUCK", "CITY": "Louisville", "STATE": "KY", "FIPS": "21", "ZIP": "40209", "ZIP2": null, "PARCEL": 0.000000, "LATITUDE": 38.181150, "LONGITUDE": -85.750200, "GEOSOURCE": "GDT 2001 STREETS", "CREATEDATE": "2003\/04\/09", "CREATOR": "INDUS", "MODDATE": null, "ASSOC": null }, "geometry": { "type": "Point", "coordinates": [ -85.7502, 38.18115 ] } },
{ "type": "Feature", "properties": { "ID": "10488", "NAME": "Emery Forwarding-Kenner-LA", "TYPE": "AIR", "MODE_TYPE": "AIR & TRUCK", "CITY": "Kenner", "STATE": "LA", "FIPS": "22", "ZIP": "70062", "ZIP2": null, "PARCEL": 0.000000, "LATITUDE": 29.986460, "LONGITUDE": -90.271950, "GEOSOURCE": "GDT 2001 STREETS", "CREATEDATE": "2003\/04\/09", "CREATOR": "INDUS", "MODDATE": null, "ASSOC": null }, "geometry": { "type": "Point", "coordinates": [ -90.27195, 29.98646 ] } },
{ "type": "Feature", "properties": { "ID": "10489", "NAME": "Emery Forwarding-Shreveport-LA", "TYPE": "AIR", "MODE_TYPE": "AIR & TRUCK", "CITY": "Shreveport", "STATE": "LA", "FIPS": "22", "ZIP": "71109", "ZIP2": null, "PARCEL": 0.000000, "LATITUDE": 32.457600, "LONGITUDE": -93.823670, "GEOSOURCE": "GDT 2001 STREETS", "CREATEDATE": "2003\/04\/09", "CREATOR": "INDUS", "MODDATE": null, "ASSOC": null }, "geometry": { "type": "Point", "coordinates": [ -93.82367, 32.4576 ] } },
{ "type": "Feature", "properties": { "ID": "1049", "NAME": "TRANSFER SERVICES", "TYPE": "RAIL", "MODE_TYPE": "RAIL & TRUCK", "CITY": "CEDAR RAPIDS", "STATE": "IA", "FIPS": "19", "ZIP": "52404", "ZIP2": null, "PARCEL": 0.000000, "LATITUDE": 41.963130, "LONGITUDE": -91.690080, "GEOSOURCE": "GDT 2000 STREETS", "CREATEDATE": "2003\/04\/09", "CREATOR": "INDUS", "MODDATE": null, "ASSOC": "CN" }, "geometry": { "type": "Point", "coordinates": [ -91.69008, 41.96313 ] } },
{ "type": "Feature", "properties": { "ID": "10491", "NAME": "Emery Forwarding-Portland-ME", "TYPE": "AIR", "MODE_TYPE": "AIR & TRUCK", "CITY": "Portland", "STATE": "ME", "FIPS": "23", "ZIP": "04103", "ZIP2": null, "PARCEL": 0.000000, "LATITUDE": 43.691790, "LONGITUDE": -70.325400, "GEOSOURCE": "GDT 2001 STREETS", "CREATEDATE": "2003\/04\/09", "CREATOR": "INDUS", "MODDATE": null, "ASSOC": null }, "geometry": { "type": "Point", "coordinates": [ -70.3254, 43.69179 ] } },
{ "type": "Feature", "properties": { "ID": "10492", "NAME": "Emery Customs Brokers-Portland-ME", "TYPE": "AIR", "MODE_TYPE": "AIR & TRUCK", "CITY": "Portland", "STATE": "ME", "FIPS": "23", "ZIP": "04103", "ZIP2": null, "PARCEL": 0.000000, "LATITUDE": 43.691790, "LONGITUDE": -70.325400, "GEOSOURCE": "GDT 2001 STREETS", "CREATEDATE": "2003\/04\/09", "CREATOR": "INDUS", "MODDATE": null, "ASSOC": null }, "geometry": { "type": "Point", "coordinates": [ -70.3254, 43.69179 ] } },
{ "type": "Feature", "properties": { "ID": "10495", "NAME": "Emery Forwarding-Chelsea-MA", "TYPE": "AIR", "MODE_TYPE": "AIR & TRUCK", "CITY": "Chelsea", "STATE": "MA", "FIPS": "25", "ZIP": "02150", "ZIP2": null, "PARCEL": 0.000000, "LATITUDE": 42.396000, "LONGITUDE": -71.021110, "GEOSOURCE": "GDT 2001 STREETS", "CREATEDATE": "2003\/04\/09", "CREATOR": "INDUS", "MODDATE": null, "ASSOC": null }, "geometry": { "type": "Point", "coordinates": [ -71.02111, 42.396 ] } },
{ "type": "Feature", "properties": { "ID": "10496", "NAME": "Emery Customs Brokers-Chelsea-MA", "TYPE": "AIR", "MODE_TYPE": "AIR & TRUCK", "CITY": "Chelsea", "STATE": "MA", "FIPS": "25", "ZIP": "02150", "ZIP2": null, "PARCEL": 0.000000, "LATITUDE": 42.396000, "LONGITUDE": -71.021110, "GEOSOURCE": "GDT 2001 STREETS", "CREATEDATE": "2003\/04\/09", "CREATOR": "INDUS", "MODDATE": null, "ASSOC": null }, "geometry": { "type": "Point", "coordinates": [ -71.02111, 42.396 ] } },
{ "type": "Feature", "properties": { "ID": "10497", "NAME": "Emery Ocean Services-Chelsea-MA", "TYPE": "AIR", "MODE_TYPE": "AIR & TRUCK", "CITY": "Chelsea", "STATE": "MA", "FIPS": "25", "ZIP": "02150", "ZIP2": null, "PARCEL": 0.000000, "LATITUDE": 42.396000, "LONGITUDE": -71.021110, "GEOSOURCE": "GDT 2001 STREETS", "CREATEDATE": "2003\/04\/09", "CREATOR": "INDUS", "MODDATE": null, "ASSOC": null }, "geometry": { "type": "Point", "coordinates": [ -71.02111, 42.396 ] } },
{ "type": "Feature", "properties": { "ID": "10498", "NAME": "ECB c\/o Norman G. Jensen, Inc.-Blue Water Bridge-M", "TYPE": "AIR", "MODE_TYPE": "AIR & TRUCK", "CITY": "Blue Water Bridge", "STATE": "MI", "FIPS": "26", "ZIP": "48060", "ZIP2": null, "PARCEL": 0.000000, "LATITUDE": 42.999370, "LONGITUDE": -82.435950, "GEOSOURCE": "GDT 2001 STREETS", "CREATEDATE": "2003\/04\/09", "CREATOR": "INDUS", "MODDATE": null, "ASSOC": null }, "geometry": { "type": "Point", "coordinates": [ -82.43595, 42.99937 ] } },
{ "type": "Feature", "properties": { "ID": "105", "NAME": "ST. PAUL PORT AUTHORITY", "TYPE": "PORT", "MODE_TYPE": "TRUCK - PORT - RAIL", "CITY": "SAINT PAUL", "STATE": "MN", "FIPS": "27", "ZIP": "55102", "ZIP2": null, "PARCEL": 0.000000, "LATITUDE": 44.944680, "LONGITUDE": -93.095190, "GEOSOURCE": "GDT 2000 STREETS", "CREATEDATE": "2003\/04\/09", "CREATOR": "INDUS", "MODDATE": null, "ASSOC": null }, "geometry": { "type": "Point", "coordinates": [ -93.09519, 44.94468 ] } },
{ "type": "Feature", "properties": { "ID": "1050", "NAME": "THE INDIANA RAIL ROAD CO.", "TYPE": "RAIL", "MODE_TYPE": "RAIL & TRUCK", "CITY": "INDIANAPOLIS", "STATE": "IN", "FIPS": "18", "ZIP": "46206", "ZIP2": null, "PARCEL": 0.000000, "LATITUDE": 39.747430, "LONGITUDE": -86.164590, "GEOSOURCE": "GDT 2000 STREETS", "CREATEDATE": "2003\/04\/09", "CREATOR": "INDUS", "MODDATE": null, "ASSOC": "CN" }, "geometry": { "type": "Point", "coordinates": [ -86.16459, 39.74743 ] } },
{ "type": "Feature", "properties": { "ID": "10500", "NAME": "Emery Customs Brokers-Detroit-MI", "TYPE": "AIR", "MODE_TYPE": "AIR & TRUCK", "CITY": "Detroit", "STATE": "MI", "FIPS": "26", "ZIP": "48216", "ZIP2": null, "PARCEL": 0.000000, "LATITUDE": 42.318270, "LONGITUDE": -83.076460, "GEOSOURCE": "GDT 2001 STREETS", "CREATEDATE": "2003\/04\/09", "CREATOR": "INDUS", "MODDATE": null, "ASSOC": null }, "geometry": { "type": "Point", "coordinates": [ -83.07646, 42.31827 ] } },
{ "type": "Feature", "properties": { "ID": "10502", "NAME": "ECB c\/o Norman G. Jensen, Inc-Sault Ste. Marie-MI", "TYPE": "AIR", "MODE_TYPE": "AIR & TRUCK", "CITY": "Sault Ste. Marie", "STATE": "MI", "FIPS": "26", "ZIP": "49783", "ZIP2": null, "PARCEL": 0.000000, "LATITUDE": 46.501470, "LONGITUDE": -84.362140, "GEOSOURCE": "GDT 2001 STREETS", "CREATEDATE": "2003\/04\/09", "CREATOR": "INDUS", "MODDATE": null, "ASSOC": null }, "geometry": { "type": "Point", "coordinates": [ -84.36214, 46.50147 ] } },
{ "type": "Feature", "properties": { "ID": "10503", "NAME": "Emery Forwarding-Flint-MI", "TYPE": "AIR", "MODE_TYPE": "AIR & TRUCK", "CITY": "Flint", "STATE": "MI", "FIPS": "26", "ZIP": "48507", "ZIP2": null, "PARCEL": 0.000000, "LATITUDE": 42.972980, "LONGITUDE": -83.744510, "GEOSOURCE": "GDT 2001 STREETS", "CREATEDATE": "2003\/04\/09", "CREATOR": "INDUS", "MODDATE": null, "ASSOC": null }, "geometry": { "type": "Point", "coordinates": [ -83.74451, 42.97298 ] } },
{ "type": "Feature", "properties": { "ID": "1051", "NAME": "C.W.S., INC.", "TYPE": "RAIL", "MODE_TYPE": "RAIL & TRUCK", "CITY": "VENICE", "STATE": "IL", "FIPS": "17", "ZIP": "62090", "ZIP2": "1026", "PARCEL": 0.000000, "LATITUDE": 38.663120, "LONGITUDE": -90.174730, "GEOSOURCE": "GDT 2000 STREETS", "CREATEDATE": "2003\/04\/09", "CREATOR": "INDUS", "MODDATE": null, "ASSOC": "CN" }, "geometry": { "type": "Point", "coordinates": [ -90.17473, 38.66312 ] } },
{ "type": "Feature", "properties": { "ID": "10511", "NAME": "Emery Forwarding-Minneapolis-MN-MSP", "TYPE": "AIR", "MODE_TYPE": "AIR & TRUCK", "CITY": "Minneapolis", "STATE": "MN", "FIPS": "27", "ZIP": "55450", "ZIP2": null, "PARCEL": 0.000000, "LATITUDE": 44.867900, "LONGITUDE": -93.234760, "GEOSOURCE": "GDT 2001 STREETS", "CREATEDATE": "2003\/04\/09", "CREATOR": "INDUS", "MODDATE": null, "ASSOC": null }, "geometry": { "type": "Point", "coordinates": [ -93.23476, 44.8679 ] } },
{ "type": "Feature", "properties": { "ID": "10513", "NAME": "Emery Forwarding-Jackson-MS", "TYPE": "AIR", "MODE_TYPE": "AIR & TRUCK", "CITY": "Jackson", "STATE": "MS", "FIPS": "28", "ZIP": "39298", "ZIP2": null, "PARCEL": 0.000000, "LATITUDE": 32.307710, "LONGITUDE": -90.074940, "GEOSOURCE": "GDT 2001 STREETS", "CREATEDATE": "2003\/04\/09", "CREATOR": "INDUS", "MODDATE": null, "ASSOC": null }, "geometry": { "type": "Point", "coordinates": [ -90.07494, 32.30771 ] } },
{ "type": "Feature", "properties": { "ID": "10514", "NAME": "Emery Forwarding-Kansas City-MO", "TYPE": "AIR", "MODE_TYPE": "AIR & TRUCK", "CITY": "Kansas City", "STATE": "MO", "FIPS": "29", "ZIP": "64153", "ZIP2": null, "PARCEL": 0.000000, "LATITUDE": 39.277940, "LONGITUDE": -94.673160, "GEOSOURCE": "GDT 2001 STREETS", "CREATEDATE": "2003\/04\/09", "CREATOR": "INDUS", "MODDATE": null, "ASSOC": null }, "geometry": { "type": "Point", "coordinates": [ -94.67316, 39.27794 ] } },
{ "type": "Feature", "properties": { "ID": "10515", "NAME": "Emery Ocean Services-Kansas City-MO", "TYPE": "AIR", "MODE_TYPE": "AIR & TRUCK", "CITY": "Kansas City", "STATE": "MO", "FIPS": "29", "ZIP": "64153", "ZIP2": null, "PARCEL": 0.000000, "LATITUDE": 39.277940, "LONGITUDE": -94.673160, "GEOSOURCE": "GDT 2001 STREETS", "CREATEDATE": "2003\/04\/09", "CREATOR": "INDUS", "MODDATE": null, "ASSOC": null }, "geometry": { "type": "Point", "coordinates": [ -94.67316, 39.27794 ] } },
{ "type": "Feature", "properties": { "ID": "10516", "NAME": "Landair Deliver Services-Springfield-MO", "TYPE": "AIR", "MODE_TYPE": "AIR & TRUCK", "CITY": "Springfield", "STATE": "MO", "FIPS": "29", "ZIP": "65803", "ZIP2": null, "PARCEL": 0.000000, "LATITUDE": 39.748140, "LONGITUDE": -94.602220, "GEOSOURCE": "GDT 2001 STREETS", "CREATEDATE": "2003\/04\/09", "CREATOR": "INDUS", "MODDATE": null, "ASSOC": null }, "geometry": { "type": "Point", "coordinates": [ -94.60222, 39.74814 ] } },
{ "type": "Feature", "properties": { "ID": "10517", "NAME": "Emery Forwarding-St. Louis-MO", "TYPE": "AIR", "MODE_TYPE": "AIR & TRUCK", "CITY": "St. Louis", "STATE": "MO", "FIPS": "29", "ZIP": "63134", "ZIP2": null, "PARCEL": 0.000000, "LATITUDE": 38.756020, "LONGITUDE": -90.348750, "GEOSOURCE": "GDT 2001 STREETS", "CREATEDATE": "2003\/04\/09", "CREATOR": "INDUS", "MODDATE": null, "ASSOC": null }, "geometry": { "type": "Point", "coordinates": [ -90.34875, 38.75602 ] } },
{ "type": "Feature", "properties": { "ID": "1054", "NAME": "ST.LOUIS RELOAD, INC.", "TYPE": "RAIL", "MODE_TYPE": "RAIL & TRUCK", "CITY": "MADISON", "STATE": "IL", "FIPS": "17", "ZIP": null, "ZIP2": null, "PARCEL": 0.000000, "LATITUDE": 38.682670, "LONGITUDE": -90.162450, "GEOSOURCE": "GDT 2000 STREETS", "CREATEDATE": "2003\/04\/09", "CREATOR": "INDUS", "MODDATE": null, "ASSOC": "CN" }, "geometry": { "type": "Point", "coordinates": [ -90.16245, 38.68267 ] } },
{ "type": "Feature", "properties": { "ID": "1055", "NAME": "PREMIER RELOAD", "TYPE": "RAIL", "MODE_TYPE": "RAIL & TRUCK", "CITY": "FRANKLIN PARK", "STATE": "IL", "FIPS": "17", "ZIP": "60131", "ZIP2": "3304", "PARCEL": 0.000000, "LATITUDE": 41.922430, "LONGITUDE": -87.857850, "GEOSOURCE": "GDT 2000 STREETS", "CREATEDATE": "2003\/04\/09", "CREATOR": "INDUS", "MODDATE": null, "ASSOC": "CN" }, "geometry": { "type": "Point", "coordinates": [ -87.85785, 41.92243 ] } },
{ "type": "Feature", "properties": { "ID": "10551", "NAME": "Emery Forwarding-Las Vegas-NV", "TYPE": "AIR", "MODE_TYPE": "AIR & TRUCK", "CITY": "Las Vegas", "STATE": "NV", "FIPS": "32", "ZIP": "89118", "ZIP2": null, "PARCEL": 0.000000, "LATITUDE": 36.095440, "LONGITUDE": -115.184620, "GEOSOURCE": "GDT 2001 STREETS", "CREATEDATE": "2003\/04\/09", "CREATOR": "INDUS", "MODDATE": null, "ASSOC": null }, "geometry": { "type": "Point", "coordinates": [ -115.18462, 36.09544 ] } },
{ "type": "Feature", "properties": { "ID": "10555", "NAME": "Emery Forwarding-Reno-NV", "TYPE": "AIR", "MODE_TYPE": "AIR & TRUCK", "CITY": "Reno", "STATE": "NV", "FIPS": "32", "ZIP": "89502", "ZIP2": null, "PARCEL": 0.000000, "LATITUDE": 39.509240, "LONGITUDE": -119.777810, "GEOSOURCE": "GDT 2001 STREETS", "CREATEDATE": "2003\/04\/09", "CREATOR": "INDUS", "MODDATE": null, "ASSOC": null }, "geometry": { "type": "Point", "coordinates": [ -119.77781, 39.50924 ] } },
{ "type": "Feature", "properties": { "ID": "10558", "NAME": "Emery Forwarding-Portsmouth-NH", "TYPE": "AIR", "MODE_TYPE": "AIR & TRUCK", "CITY": "Portsmouth", "STATE": "NH", "FIPS": "33", "ZIP": "03801", "ZIP2": null, "PARCEL": 0.000000, "LATITUDE": 43.074930, "LONGITUDE": -70.809060, "GEOSOURCE": "GDT 2001 STREETS", "CREATEDATE": "2003\/04\/09", "CREATOR": "INDUS", "MODDATE": null, "ASSOC": null }, "geometry": { "type": "Point", "coordinates": [ -70.80906, 43.07493 ] } },
{ "type": "Feature", "properties": { "ID": "10559", "NAME": "Emery Customes Brokers", "TYPE": "AIR", "MODE_TYPE": "AIR & TRUCK", "CITY": "Portsmouth", "STATE": "NH", "FIPS": "33", "ZIP": "03801", "ZIP2": null, "PARCEL": 0.000000, "LATITUDE": 43.074930, "LONGITUDE": -70.809060, "GEOSOURCE": "GDT 2001 STREETS", "CREATEDATE": "2003\/04\/09", "CREATOR": "INDUS", "MODDATE": null, "ASSOC": null }, "geometry": { "type": "Point", "coordinates": [ -70.80906, 43.07493 ] } },
{ "type": "Feature", "properties": { "ID": "1056", "NAME": "G AND W DISTRIBUTION", "TYPE": "RAIL", "MODE_TYPE": "RAIL & TRUCK", "CITY": "EFFINGHAM", "STATE": "IL", "FIPS": "17", "ZIP": "62401", "ZIP2": "2832", "PARCEL": 0.000000, "LATITUDE": 39.100190, "LONGITUDE": -88.547140, "GEOSOURCE": "GDT 2000 STREETS", "CREATEDATE": "2003\/04\/09", "CREATOR": "INDUS", "MODDATE": null, "ASSOC": "CN" }, "geometry": { "type": "Point", "coordinates": [ -88.54714, 39.10019 ] } },
{ "type": "Feature", "properties": { "ID": "10560", "NAME": "Emery Forwarding-Neward-NJ", "TYPE": "AIR", "MODE_TYPE": "AIR & TRUCK", "CITY": "Newark", "STATE": "NJ", "FIPS": "34", "ZIP": "07114", "ZIP2": null, "PARCEL": 0.000000, "LATITUDE": 40.707650, "LONGITUDE": -74.158630, "GEOSOURCE": "GDT 2001 STREETS", "CREATEDATE": "2003\/04\/09", "CREATOR": "INDUS", "MODDATE": null, "ASSOC": null }, "geometry": { "type": "Point", "coordinates": [ -74.15863, 40.70765 ] } },
{ "type": "Feature", "properties": { "ID": "10561", "NAME": "Emery Customs Brokers-Newark-NJ", "TYPE": "AIR", "MODE_TYPE": "AIR & TRUCK", "CITY": "Newark", "STATE": "NJ", "FIPS": "34", "ZIP": "07114", "ZIP2": null, "PARCEL": 0.000000, "LATITUDE": 40.707650, "LONGITUDE": -74.158630, "GEOSOURCE": "GDT 2001 STREETS", "CREATEDATE": "2003\/04\/09", "CREATOR": "INDUS", "MODDATE": null, "ASSOC": null }, "geometry": { "type": "Point", "coordinates": [ -74.15863, 40.70765 ] } },
{ "type": "Feature", "properties": { "ID": "1057", "NAME": "CN LUMBER RELOAD", "TYPE": "RAIL", "MODE_TYPE": "RAIL & TRUCK", "CITY": "CHICAGO", "STATE": "IL", "FIPS": "17", "ZIP": "60632", "ZIP2": null, "PARCEL": 0.000000, "LATITUDE": 41.800630, "LONGITUDE": -87.712620, "GEOSOURCE": "GDT 2000 STREETS", "CREATEDATE": "2003\/04\/09", "CREATOR": "INDUS", "MODDATE": null, "ASSOC": "CN" }, "geometry": { "type": "Point", "coordinates": [ -87.71262, 41.80063 ] } },
{ "type": "Feature", "properties": { "ID": "1058", "NAME": "C.C. LOUNSBURY, INC.", "TYPE": "RAIL", "MODE_TYPE": "RAIL & TRUCK", "CITY": "WILLIMANTIC", "STATE": "CT", "FIPS": "09", "ZIP": "06226", "ZIP2": null, "PARCEL": 0.000000, "LATITUDE": 41.717310, "LONGITUDE": -72.244230, "GEOSOURCE": "GDT 2000 STREETS", "CREATEDATE": "2003\/04\/09", "CREATOR": "INDUS", "MODDATE": null, "ASSOC": "CN" }, "geometry": { "type": "Point", "coordinates": [ -72.24423, 41.71731 ] } },
{ "type": "Feature", "properties": { "ID": "1059", "NAME": "MOBILE MOVING AND STORAGE", "TYPE": "RAIL", "MODE_TYPE": "RAIL & TRUCK", "CITY": "MOBILE", "STATE": "AL", "FIPS": "01", "ZIP": "36652", "ZIP2": null, "PARCEL": 0.000000, "LATITUDE": 30.648140, "LONGITUDE": -88.073490, "GEOSOURCE": "GDT 2000 STREETS", "CREATEDATE": "2003\/04\/09", "CREATOR": "INDUS", "MODDATE": null, "ASSOC": "CN" }, "geometry": { "type": "Point", "coordinates": [ -88.07349, 30.64814 ] } },
{ "type": "Feature", "properties": { "ID": "10593", "NAME": "Emery Ocean Services-Newark-NJ", "TYPE": "AIR", "MODE_TYPE": "AIR & TRUCK", "CITY": "Newark", "STATE": "NJ", "FIPS": "34", "ZIP": "07114", "ZIP2": null, "PARCEL": 0.000000, "LATITUDE": 40.707650, "LONGITUDE": -74.158630, "GEOSOURCE": "GDT 2001 STREETS", "CREATEDATE": "2003\/04\/09", "CREATOR": "INDUS", "MODDATE": null, "ASSOC": null }, "geometry": { "type": "Point", "coordinates": [ -74.15863, 40.70765 ] } },
{ "type": "Feature", "properties": { "ID": "106", "NAME": "NS INDEPENDENT BULK TRANSFER TERMINAL-DETROIT-MI", "TYPE": "RAIL", "MODE_TYPE": "RAIL & TRUCK", "CITY": "DETROIT", "STATE": "MI", "FIPS": "26", "ZIP": "48209", "ZIP2": null, "PARCEL": 0.000000, "LATITUDE": 42.305660, "LONGITUDE": -83.090130, "GEOSOURCE": "GDT 2000 STREETS", "CREATEDATE": "2003\/04\/09", "CREATOR": "INDUS", "MODDATE": null, "ASSOC": "NS" }, "geometry": { "type": "Point", "coordinates": [ -83.09013, 42.30566 ] } },
{ "type": "Feature", "properties": { "ID": "10604", "NAME": "Emery Forwarding-Albuquerque-NM", "TYPE": "AIR", "MODE_TYPE": "AIR & TRUCK", "CITY": "Albuquerque", "STATE": "NM", "FIPS": "35", "ZIP": "87106", "ZIP2": null, "PARCEL": 0.000000, "LATITUDE": 35.054540, "LONGITUDE": -106.619800, "GEOSOURCE": "GDT 2001 STREETS", "CREATEDATE": "2003\/04\/09", "CREATOR": "INDUS", "MODDATE": null, "ASSOC": null }, "geometry": { "type": "Point", "coordinates": [ -106.6198, 35.05454 ] } },
{ "type": "Feature", "properties": { "ID": "10605", "NAME": "Emery Forwarding-Albany-NY", "TYPE": "AIR", "MODE_TYPE": "AIR & TRUCK", "CITY": "Albany", "STATE": "NY", "FIPS": "36", "ZIP": "12205", "ZIP2": null, "PARCEL": 0.000000, "LATITUDE": 42.720980, "LONGITUDE": -73.865160, "GEOSOURCE": "GDT 2001 STREETS", "CREATEDATE": "2003\/04\/09", "CREATOR": "INDUS", "MODDATE": null, "ASSOC": null }, "geometry": { "type": "Point", "coordinates": [ -73.86516, 42.72098 ] } },
{ "type": "Feature", "properties": { "ID": "10607", "NAME": "Emery Forwarding-Buffalo-NY", "TYPE": "AIR", "MODE_TYPE": "AIR & TRUCK", "CITY": "Buffalo", "STATE": "NY", "FIPS": "36", "ZIP": "14225", "ZIP2": null, "PARCEL": 0.000000, "LATITUDE": 42.931780, "LONGITUDE": -78.714350, "GEOSOURCE": "GDT 2001 STREETS", "CREATEDATE": "2003\/04\/09", "CREATOR": "INDUS", "MODDATE": null, "ASSOC": null }, "geometry": { "type": "Point", "coordinates": [ -78.71435, 42.93178 ] } },
{ "type": "Feature", "properties": { "ID": "10608", "NAME": "Emery Customs Brokers-Buffalo-NY", "TYPE": "AIR", "MODE_TYPE": "AIR & TRUCK", "CITY": "Buffalo", "STATE": "NY", "FIPS": "36", "ZIP": "14202", "ZIP2": null, "PARCEL": 0.000000, "LATITUDE": 42.887730, "LONGITUDE": -78.877370, "GEOSOURCE": "GDT 2001 STREETS", "CREATEDATE": "2003\/04\/09", "CREATOR": "INDUS", "MODDATE": null, "ASSOC": null }, "geometry": { "type": "Point", "coordinates": [ -78.87737, 42.88773 ] } },
{ "type": "Feature", "properties": { "ID": "1061", "NAME": "WAREHOUSING OF WISCONSIN-GREEN BAY-WI-2275 CENTU", "TYPE": "RAIL", "MODE_TYPE": "RAIL & TRUCK", "CITY": "GREEN BAY", "STATE": "WI", "FIPS": "55", "ZIP": "54307", "ZIP2": null, "PARCEL": 0.000000, "LATITUDE": 44.534250, "LONGITUDE": -88.085360, "GEOSOURCE": "GDT 2000 STREETS", "CREATEDATE": "2003\/04\/09", "CREATOR": "INDUS", "MODDATE": null, "ASSOC": "CN" }, "geometry": { "type": "Point", "coordinates": [ -88.08536, 44.53425 ] } },
{ "type": "Feature", "properties": { "ID": "10616", "NAME": "Emery Customs Brokers-Rochester-NY", "TYPE": "AIR", "MODE_TYPE": "AIR & TRUCK", "CITY": "Rochester", "STATE": "NY", "FIPS": "36", "ZIP": "14624", "ZIP2": null, "PARCEL": 0.000000, "LATITUDE": 43.129090, "LONGITUDE": -77.672940, "GEOSOURCE": "GDT 2001 STREETS", "CREATEDATE": "2003\/04\/09", "CREATOR": "INDUS", "MODDATE": null, "ASSOC": null }, "geometry": { "type": "Point", "coordinates": [ -77.67294, 43.12909 ] } },
{ "type": "Feature", "properties": { "ID": "10617", "NAME": "Emery Forwarding-Elmira-NY", "TYPE": "AIR", "MODE_TYPE": "AIR & TRUCK", "CITY": "Elmira", "STATE": "NY", "FIPS": "36", "ZIP": "14901", "ZIP2": null, "PARCEL": 0.000000, "LATITUDE": 42.114000, "LONGITUDE": -76.812970, "GEOSOURCE": "GDT 2001 STREETS", "CREATEDATE": "2003\/04\/09", "CREATOR": "INDUS", "MODDATE": null, "ASSOC": null }, "geometry": { "type": "Point", "coordinates": [ -76.81297, 42.114 ] } },
{ "type": "Feature", "properties": { "ID": "1062", "NAME": "WAREHOUSING OF WISCONSIN-GREEN BAY-WI-2330 LARSE", "TYPE": "RAIL", "MODE_TYPE": "RAIL & TRUCK", "CITY": "GREEN BAY", "STATE": "WI", "FIPS": "55", "ZIP": "54307", "ZIP2": null, "PARCEL": 0.000000, "LATITUDE": 44.531350, "LONGITUDE": -88.087650, "GEOSOURCE": "GDT 2000 STREETS", "CREATEDATE": "2003\/04\/09", "CREATOR": "INDUS", "MODDATE": null, "ASSOC": "CN" }, "geometry": { "type": "Point", "coordinates": [ -88.08765, 44.53135 ] } },
{ "type": "Feature", "properties": { "ID": "1063", "NAME": "B AND D WAREHOUSE", "TYPE": "RAIL", "MODE_TYPE": "RAIL & TRUCK", "CITY": "GREEN BAY", "STATE": "WI", "FIPS": "55", "ZIP": "54303", "ZIP2": null, "PARCEL": 0.000000, "LATITUDE": 44.536960, "LONGITUDE": -88.081500, "GEOSOURCE": "GDT 2000 STREETS", "CREATEDATE": "2003\/04\/09", "CREATOR": "INDUS", "MODDATE": null, "ASSOC": "CN" }, "geometry": { "type": "Point", "coordinates": [ -88.0815, 44.53696 ] } },
{ "type": "Feature", "properties": { "ID": "1064", "NAME": "RSD COMPANIES", "TYPE": "RAIL", "MODE_TYPE": "RAIL & TRUCK", "CITY": "WHITE RIVER JCT", "STATE": "VT", "FIPS": "50", "ZIP": "05001", "ZIP2": null, "PARCEL": 0.000000, "LATITUDE": 43.661680, "LONGITUDE": -72.351340, "GEOSOURCE": "GDT 2000 STREETS", "CREATEDATE": "2003\/04\/09", "CREATOR": "INDUS", "MODDATE": null, "ASSOC": "CN" }, "geometry": { "type": "Point", "coordinates": [ -72.35134, 43.66168 ] } },
{ "type": "Feature", "properties": { "ID": "1065", "NAME": "RED BANK DISTRIBUTION", "TYPE": "RAIL", "MODE_TYPE": "RAIL & TRUCK", "CITY": "CINCINNATI", "STATE": "OH", "FIPS": "39", "ZIP": "45227", "ZIP2": null, "PARCEL": 0.000000, "LATITUDE": 39.147950, "LONGITUDE": -84.404680, "GEOSOURCE": "GDT 2000 STREETS", "CREATEDATE": "2003\/04\/09", "CREATOR": "INDUS", "MODDATE": null, "ASSOC": "CN" }, "geometry": { "type": "Point", "coordinates": [ -84.40468, 39.14795 ] } },
{ "type": "Feature", "properties": { "ID": "1066", "NAME": "DEDICATED LOGISTICS INC", "TYPE": "RAIL", "MODE_TYPE": "RAIL & TRUCK", "CITY": "ROSEVILLE", "STATE": "MN", "FIPS": "27", "ZIP": "55113", "ZIP2": null, "PARCEL": 0.000000, "LATITUDE": 45.015910, "LONGITUDE": -93.205050, "GEOSOURCE": "GDT 2000 STREETS", "CREATEDATE": "2003\/04\/09", "CREATOR": "INDUS", "MODDATE": null, "ASSOC": "CN" }, "geometry": { "type": "Point", "coordinates": [ -93.20505, 45.01591 ] } },
{ "type": "Feature", "properties": { "ID": "10666", "NAME": "Emery Forwarding-Springfield Gardens-NY", "TYPE": "AIR", "MODE_TYPE": "AIR & TRUCK", "CITY": "Springfield Gardens", "STATE": "NY", "FIPS": "36", "ZIP": "11413", "ZIP2": null, "PARCEL": 0.000000, "LATITUDE": 40.658460, "LONGITUDE": -73.763700, "GEOSOURCE": "GDT 2001 STREETS", "CREATEDATE": "2003\/04\/09", "CREATOR": "INDUS", "MODDATE": null, "ASSOC": null }, "geometry": { "type": "Point", "coordinates": [ -73.7637, 40.65846 ] } },
{ "type": "Feature", "properties": { "ID": "1067", "NAME": "MURPHY WAREHOUSE COMPANY-FRIDLEY-MN-7033 CENTR", "TYPE": "RAIL", "MODE_TYPE": "RAIL & TRUCK", "CITY": "FRIDLEY", "STATE": "MN", "FIPS": "27", "ZIP": "55414", "ZIP2": null, "PARCEL": 0.000000, "LATITUDE": 44.984110, "LONGITUDE": -93.257200, "GEOSOURCE": "GDT 2000 STREETS", "CREATEDATE": "2003\/04\/09", "CREATOR": "INDUS", "MODDATE": null, "ASSOC": "CN" }, "geometry": { "type": "Point", "coordinates": [ -93.2572, 44.98411 ] } },
{ "type": "Feature", "properties": { "ID": "10672", "NAME": "Emery Customs Brokers-Springfield Gardens-NY", "TYPE": "AIR", "MODE_TYPE": "AIR & TRUCK", "CITY": "Springfield Gardens", "STATE": "NY", "FIPS": "36", "ZIP": "11413", "ZIP2": null, "PARCEL": 0.000000, "LATITUDE": 40.658460, "LONGITUDE": -73.763700, "GEOSOURCE": "GDT 2001 STREETS", "CREATEDATE": "2003\/04\/09", "CREATOR": "INDUS", "MODDATE": null, "ASSOC": null }, "geometry": { "type": "Point", "coordinates": [ -73.7637, 40.65846 ] } },
{ "type": "Feature", "properties": { "ID": "1068", "NAME": "BENHKE INC", "TYPE": "RAIL", "MODE_TYPE": "RAIL & TRUCK", "CITY": "BATTLE CREEK", "STATE": "MI", "FIPS": "26", "ZIP": "49016", "ZIP2": "2102", "PARCEL": 0.000000, "LATITUDE": 42.316860, "LONGITUDE": -85.167110, "GEOSOURCE": "GDT 2000 STREETS", "CREATEDATE": "2003\/04\/09", "CREATOR": "INDUS", "MODDATE": null, "ASSOC": "CN" }, "geometry": { "type": "Point", "coordinates": [ -85.16711, 42.31686 ] } },
{ "type": "Feature", "properties": { "ID": "1069", "NAME": "NEW ENGLAND PUBLIC WAREHOUSE-SOUTH PARIS-ME", "TYPE": "RAIL", "MODE_TYPE": "RAIL & TRUCK", "CITY": "SOUTH PARIS", "STATE": "ME", "FIPS": "23", "ZIP": "04281", "ZIP2": null, "PARCEL": 0.000000, "LATITUDE": 44.223920, "LONGITUDE": -70.513010, "GEOSOURCE": "GDT 2000 STREETS", "CREATEDATE": "2003\/04\/09", "CREATOR": "INDUS", "MODDATE": null, "ASSOC": "CN" }, "geometry": { "type": "Point", "coordinates": [ -70.51301, 44.22392 ] } },
{ "type": "Feature", "properties": { "ID": "107", "NAME": "THE FOODS CORPORATION-WEST BLOOMFIELD-MI", "TYPE": "RAIL", "MODE_TYPE": "RAIL & TRUCK", "CITY": "WEST BLOOMFIELD", "STATE": "MI", "FIPS": "26", "ZIP": "48322", "ZIP2": null, "PARCEL": 0.000000, "LATITUDE": 42.542550, "LONGITUDE": -83.362240, "GEOSOURCE": "GDT 2000 STREETS", "CREATEDATE": "2003\/04\/09", "CREATOR": "INDUS", "MODDATE": null, "ASSOC": "NS" }, "geometry": { "type": "Point", "coordinates": [ -83.36224, 42.54255 ] } },
{ "type": "Feature", "properties": { "ID": "1070", "NAME": "NEW ENGLAND PUBLIC WAREHOUSE-MECHANIC FALLS-ME", "TYPE": "RAIL", "MODE_TYPE": "RAIL & TRUCK", "CITY": "MECHANIC FALLS", "STATE": "ME", "FIPS": "23", "ZIP": "04256", "ZIP2": null, "PARCEL": 0.000000, "LATITUDE": 44.110030, "LONGITUDE": -70.383410, "GEOSOURCE": "GDT 2000 STREETS", "CREATEDATE": "2003\/04\/09", "CREATOR": "INDUS", "MODDATE": null, "ASSOC": "CN" }, "geometry": { "type": "Point", "coordinates": [ -70.38341, 44.11003 ] } },
{ "type": "Feature", "properties": { "ID": "1071", "NAME": "WAGNER MOVING AND STORAGE INC.", "TYPE": "RAIL", "MODE_TYPE": "RAIL & TRUCK", "CITY": "PADUCAH", "STATE": "KY", "FIPS": "21", "ZIP": null, "ZIP2": null, "PARCEL": 0.000000, "LATITUDE": 37.097050, "LONGITUDE": -88.624470, "GEOSOURCE": "GDT 2000 STREETS", "CREATEDATE": "2003\/04\/09", "CREATOR": "INDUS", "MODDATE": null, "ASSOC": "CN" }, "geometry": { "type": "Point", "coordinates": [ -88.62447, 37.09705 ] } },
{ "type": "Feature", "properties": { "ID": "10712", "NAME": "Emery Forwarding-Rochester-NY", "TYPE": "AIR", "MODE_TYPE": "AIR & TRUCK", "CITY": "Rochester", "STATE": "NY", "FIPS": "36", "ZIP": "14624", "ZIP2": null, "PARCEL": 0.000000, "LATITUDE": 43.129090, "LONGITUDE": -77.672940, "GEOSOURCE": "GDT 2001 STREETS", "CREATEDATE": "2003\/04\/09", "CREATOR": "INDUS", "MODDATE": null, "ASSOC": null }, "geometry": { "type": "Point", "coordinates": [ -77.67294, 43.12909 ] } },
{ "type": "Feature", "properties": { "ID": "10714", "NAME": "Emery Forwarding-North Syracuse-NY", "TYPE": "AIR", "MODE_TYPE": "AIR & TRUCK", "CITY": "North Syracuse", "STATE": "NY", "FIPS": "36", "ZIP": "13212", "ZIP2": null, "PARCEL": 0.000000, "LATITUDE": 43.130970, "LONGITUDE": -76.083390, "GEOSOURCE": "GDT 2001 STREETS", "CREATEDATE": "2003\/04\/09", "CREATOR": "INDUS", "MODDATE": null, "ASSOC": null }, "geometry": { "type": "Point", "coordinates": [ -76.08339, 43.13097 ] } },
{ "type": "Feature", "properties": { "ID": "1072", "NAME": "CRYSTAL DISTRIBUTION SERVICES, INC.", "TYPE": "RAIL", "MODE_TYPE": "RAIL & TRUCK", "CITY": "WATERLOO", "STATE": "IA", "FIPS": "19", "ZIP": "50704", "ZIP2": null, "PARCEL": 0.000000, "LATITUDE": 42.491560, "LONGITUDE": -92.321620, "GEOSOURCE": "GDT 2000 STREETS", "CREATEDATE": "2003\/04\/09", "CREATOR": "INDUS", "MODDATE": null, "ASSOC": "CN" }, "geometry": { "type": "Point", "coordinates": [ -92.32162, 42.49156 ] } },
{ "type": "Feature", "properties": { "ID": "1073", "NAME": "CEDAR RAPIDS WAREHOUSE AND TRANSFER", "TYPE": "RAIL", "MODE_TYPE": "RAIL & TRUCK", "CITY": "CEDAR RAPIDS", "STATE": "IA", "FIPS": "19", "ZIP": "52404", "ZIP2": null, "PARCEL": 0.000000, "LATITUDE": 41.965350, "LONGITUDE": -91.681280, "GEOSOURCE": "GDT 2000 STREETS", "CREATEDATE": "2003\/04\/09", "CREATOR": "INDUS", "MODDATE": null, "ASSOC": "CN" }, "geometry": { "type": "Point", "coordinates": [ -91.68128, 41.96535 ] } },
{ "type": "Feature", "properties": { "ID": "1074", "NAME": "QUALITY CARRIERS", "TYPE": "RAIL", "MODE_TYPE": "RAIL & TRUCK", "CITY": "APPLETON", "STATE": "WI", "FIPS": "55", "ZIP": "54914", "ZIP2": "4613", "PARCEL": 0.000000, "LATITUDE": 44.256820, "LONGITUDE": -88.435660, "GEOSOURCE": "GDT 2000 STREETS", "CREATEDATE": "2003\/04\/09", "CREATOR": "INDUS", "MODDATE": null, "ASSOC": "CN" }, "geometry": { "type": "Point", "coordinates": [ -88.43566, 44.25682 ] } },
{ "type": "Feature", "properties": { "ID": "10748", "NAME": "Emery Forwarding-Arden-NC", "TYPE": "AIR", "MODE_TYPE": "AIR & TRUCK", "CITY": "Arden", "STATE": "NC", "FIPS": "37", "ZIP": "28704", "ZIP2": null, "PARCEL": 0.000000, "LATITUDE": 35.461300, "LONGITUDE": -82.514390, "GEOSOURCE": "GDT 2001 STREETS", "CREATEDATE": "2003\/04\/09", "CREATOR": "INDUS", "MODDATE": null, "ASSOC": null }, "geometry": { "type": "Point", "coordinates": [ -82.51439, 35.4613 ] } },
{ "type": "Feature", "properties": { "ID": "10755", "NAME": "Emery Forwarding-Charlotte-NC", "TYPE": "AIR", "MODE_TYPE": "AIR & TRUCK", "CITY": "Charlotte", "STATE": "NC", "FIPS": "37", "ZIP": "28208", "ZIP2": null, "PARCEL": 0.000000, "LATITUDE": 35.196390, "LONGITUDE": -80.935560, "GEOSOURCE": "GDT 2001 STREETS", "CREATEDATE": "2003\/04\/09", "CREATOR": "INDUS", "MODDATE": null, "ASSOC": null }, "geometry": { "type": "Point", "coordinates": [ -80.93556, 35.19639 ] } },
{ "type": "Feature", "properties": { "ID": "10758", "NAME": "Emery Customs Brokers-Charlotte-NC", "TYPE": "AIR", "MODE_TYPE": "AIR & TRUCK", "CITY": "Charlotte", "STATE": "NC", "FIPS": "37", "ZIP": "28208", "ZIP2": null, "PARCEL": 0.000000, "LATITUDE": 35.196390, "LONGITUDE": -80.935560, "GEOSOURCE": "GDT 2001 STREETS", "CREATEDATE": "2003\/04\/09", "CREATOR": "INDUS", "MODDATE": null, "ASSOC": null }, "geometry": { "type": "Point", "coordinates": [ -80.93556, 35.19639 ] } },
{ "type": "Feature", "properties": { "ID": "1076", "NAME": "CN MEMPHIS DISTRIBUTION CENTER", "TYPE": "RAIL", "MODE_TYPE": "RAIL & TRUCK", "CITY": "MEMPHIS", "STATE": "TN", "FIPS": "47", "ZIP": "38109", "ZIP2": "2408", "PARCEL": 0.000000, "LATITUDE": 35.085940, "LONGITUDE": -90.076890, "GEOSOURCE": "GDT 2000 STREETS", "CREATEDATE": "2003\/04\/09", "CREATOR": "INDUS", "MODDATE": null, "ASSOC": "CN" }, "geometry": { "type": "Point", "coordinates": [ -90.07689, 35.08594 ] } },
{ "type": "Feature", "properties": { "ID": "10760", "NAME": "Menlo Worldwide Expedite!-Charlotte-NC", "TYPE": "AIR", "MODE_TYPE": "AIR & TRUCK", "CITY": "Charlotte", "STATE": "NC", "FIPS": "37", "ZIP": "28219", "ZIP2": null, "PARCEL": 0.000000, "LATITUDE": 35.196390, "LONGITUDE": -80.935560, "GEOSOURCE": "GDT 2001 STREETS", "CREATEDATE": "2003\/04\/09", "CREATOR": "INDUS", "MODDATE": null, "ASSOC": null }, "geometry": { "type": "Point", "coordinates": [ -80.93556, 35.19639 ] } },
{ "type": "Feature", "properties": { "ID": "10761", "NAME": "Emery Forwarding-Greensboro-NC", "TYPE": "AIR", "MODE_TYPE": "AIR & TRUCK", "CITY": "Greensboro", "STATE": "NC", "FIPS": "37", "ZIP": "27425", "ZIP2": null, "PARCEL": 0.000000, "LATITUDE": 36.118140, "LONGITUDE": -79.932620, "GEOSOURCE": "GDT 2001 STREETS", "CREATEDATE": "2003\/04\/09", "CREATOR": "INDUS", "MODDATE": null, "ASSOC": null }, "geometry": { "type": "Point", "coordinates": [ -79.93262, 36.11814 ] } },
{ "type": "Feature", "properties": { "ID": "10763", "NAME": "ECB c\/o Norman G. Jensen, Inc.-Pembina-ND", "TYPE": "AIR", "MODE_TYPE": "AIR & TRUCK", "CITY": "Pembina", "STATE": "ND", "FIPS": "38", "ZIP": "58271", "ZIP2": null, "PARCEL": 0.000000, "LATITUDE": 48.966910, "LONGITUDE": -97.245160, "GEOSOURCE": "GDT 2001 STREETS", "CREATEDATE": "2003\/04\/09", "CREATOR": "INDUS", "MODDATE": null, "ASSOC": null }, "geometry": { "type": "Point", "coordinates": [ -97.24516, 48.96691 ] } },
{ "type": "Feature", "properties": { "ID": "10764", "NAME": "ECB c\/o Norman G. Jensen, Inc.-Portal-ND", "TYPE": "AIR", "MODE_TYPE": "AIR & TRUCK", "CITY": "Portal", "STATE": "ND", "FIPS": "38", "ZIP": "58772", "ZIP2": null, "PARCEL": 0.000000, "LATITUDE": 48.994370, "LONGITUDE": -102.545260, "GEOSOURCE": "GDT 2001 STREETS", "CREATEDATE": "2003\/04\/09", "CREATOR": "INDUS", "MODDATE": null, "ASSOC": null }, "geometry": { "type": "Point", "coordinates": [ -102.54526, 48.99437 ] } },
{ "type": "Feature", "properties": { "ID": "1077", "NAME": "FALCO LIME, INC.", "TYPE": "RAIL", "MODE_TYPE": "RAIL & TRUCK", "CITY": "VICKSBURG", "STATE": "MS", "FIPS": "28", "ZIP": "39180", "ZIP2": null, "PARCEL": 0.000000, "LATITUDE": 32.391410, "LONGITUDE": -90.886010, "GEOSOURCE": "GDT 2000 STREETS", "CREATEDATE": "2003\/04\/09", "CREATOR": "INDUS", "MODDATE": null, "ASSOC": "CN" }, "geometry": { "type": "Point", "coordinates": [ -90.88601, 32.39141 ] } },
{ "type": "Feature", "properties": { "ID": "1078", "NAME": "SUPERIOR PRODUCT TRANSFER SOLUTIONS", "TYPE": "RAIL", "MODE_TYPE": "RAIL & TRUCK", "CITY": "WARREN", "STATE": "MI", "FIPS": "26", "ZIP": "48089", "ZIP2": null, "PARCEL": 0.000000, "LATITUDE": 42.456030, "LONGITUDE": -83.003990, "GEOSOURCE": "GDT 2000 STREETS", "CREATEDATE": "2003\/04\/09", "CREATOR": "INDUS", "MODDATE": null, "ASSOC": "CN" }, "geometry": { "type": "Point", "coordinates": [ -83.00399, 42.45603 ] } },
{ "type": "Feature", "properties": { "ID": "1079", "NAME": "ARROW TERMINALS LP", "TYPE": "RAIL", "MODE_TYPE": "RAIL & TRUCK", "CITY": "BATTLE CREEK", "STATE": "MI", "FIPS": "26", "ZIP": "49014", "ZIP2": null, "PARCEL": 0.000000, "LATITUDE": 42.323290, "LONGITUDE": -85.145720, "GEOSOURCE": "GDT 2000 STREETS", "CREATEDATE": "2003\/04\/09", "CREATOR": "INDUS", "MODDATE": null, "ASSOC": "CN" }, "geometry": { "type": "Point", "coordinates": [ -85.14572, 42.32329 ] } },
{ "type": "Feature", "properties": { "ID": "10799", "NAME": "Emery Customs Brokers-Middleburg Heights-OH", "TYPE": "AIR", "MODE_TYPE": "AIR & TRUCK", "CITY": "Middleburg Heights", "STATE": "OH", "FIPS": "39", "ZIP": "44130", "ZIP2": null, "PARCEL": 0.000000, "LATITUDE": 41.379080, "LONGITUDE": -81.824390, "GEOSOURCE": "GDT 2001 STREETS", "CREATEDATE": "2003\/04\/09", "CREATOR": "INDUS", "MODDATE": null, "ASSOC": null }, "geometry": { "type": "Point", "coordinates": [ -81.82439, 41.37908 ] } },
{ "type": "Feature", "properties": { "ID": "108", "NAME": "THE ANDERSON, INC.-ALBION-MI", "TYPE": "RAIL", "MODE_TYPE": "RAIL & TRUCK", "CITY": "ALBION", "STATE": "MI", "FIPS": "26", "ZIP": "49224", "ZIP2": null, "PARCEL": 0.000000, "LATITUDE": 42.261490, "LONGITUDE": -84.791660, "GEOSOURCE": "GDT 2000 STREETS", "CREATEDATE": "2003\/04\/09", "CREATOR": "INDUS", "MODDATE": null, "ASSOC": "NS" }, "geometry": { "type": "Point", "coordinates": [ -84.79166, 42.26149 ] } },
{ "type": "Feature", "properties": { "ID": "1080", "NAME": "TRANSPLASTICS\/QUALITY CARRIERS", "TYPE": "RAIL", "MODE_TYPE": "RAIL & TRUCK", "CITY": "PALMER", "STATE": "MA", "FIPS": "25", "ZIP": "01069", "ZIP2": null, "PARCEL": 0.000000, "LATITUDE": 42.198850, "LONGITUDE": -72.348720, "GEOSOURCE": "GDT 2000 STREETS", "CREATEDATE": "2003\/04\/09", "CREATOR": "INDUS", "MODDATE": null, "ASSOC": "CN" }, "geometry": { "type": "Point", "coordinates": [ -72.34872, 42.19885 ] } },
{ "type": "Feature", "properties": { "ID": "1082", "NAME": "CANADIAN NATIONAL (CN)-AUBURN-ME", "TYPE": "RAIL", "MODE_TYPE": "RAIL & TRUCK", "CITY": "AUBURN", "STATE": "ME", "FIPS": "23", "ZIP": "04210", "ZIP2": null, "PARCEL": 0.000000, "LATITUDE": 44.071910, "LONGITUDE": -70.249100, "GEOSOURCE": "GDT 2000 STREETS", "CREATEDATE": "2003\/04\/09", "CREATOR": "INDUS", "MODDATE": null, "ASSOC": "CN" }, "geometry": { "type": "Point", "coordinates": [ -70.2491, 44.07191 ] } },
{ "type": "Feature", "properties": { "ID": "1083", "NAME": "PORT MANCHAC DISTRIBUTION CENTER", "TYPE": "RAIL", "MODE_TYPE": "RAIL & TRUCK", "CITY": "PONCHATOULA", "STATE": "LA", "FIPS": "22", "ZIP": "70454", "ZIP2": null, "PARCEL": 0.000000, "LATITUDE": 30.439790, "LONGITUDE": -90.442880, "GEOSOURCE": "GDT 2000 STREETS", "CREATEDATE": "2003\/04\/09", "CREATOR": "INDUS", "MODDATE": null, "ASSOC": "CN" }, "geometry": { "type": "Point", "coordinates": [ -90.44288, 30.43979 ] } },
{ "type": "Feature", "properties": { "ID": "10839", "NAME": "Emery Ocean Services-Middleburg Heights-OH", "TYPE": "AIR", "MODE_TYPE": "AIR & TRUCK", "CITY": "Middleburg Heights", "STATE": "OH", "FIPS": "39", "ZIP": "44130", "ZIP2": null, "PARCEL": 0.000000, "LATITUDE": 41.379080, "LONGITUDE": -81.824390, "GEOSOURCE": "GDT 2001 STREETS", "CREATEDATE": "2003\/04\/09", "CREATOR": "INDUS", "MODDATE": null, "ASSOC": null }, "geometry": { "type": "Point", "coordinates": [ -81.82439, 41.37908 ] } },
{ "type": "Feature", "properties": { "ID": "10843", "NAME": "Emery Forwarding-Lewis Center-OH", "TYPE": "AIR", "MODE_TYPE": "AIR & TRUCK", "CITY": "Lewis Center", "STATE": "OH", "FIPS": "39", "ZIP": "43035", "ZIP2": null, "PARCEL": 0.000000, "LATITUDE": 40.157000, "LONGITUDE": -83.010630, "GEOSOURCE": "GDT 2001 STREETS", "CREATEDATE": "2003\/04\/09", "CREATOR": "INDUS", "MODDATE": null, "ASSOC": null }, "geometry": { "type": "Point", "coordinates": [ -83.01063, 40.157 ] } },
{ "type": "Feature", "properties": { "ID": "10845", "NAME": "Emery Customs Brokers-Lewis Center-OH", "TYPE": "AIR", "MODE_TYPE": "AIR & TRUCK", "CITY": "Lewis Center", "STATE": "OH", "FIPS": "39", "ZIP": "43035", "ZIP2": null, "PARCEL": 0.000000, "LATITUDE": 40.157000, "LONGITUDE": -83.010630, "GEOSOURCE": "GDT 2001 STREETS", "CREATEDATE": "2003\/04\/09", "CREATOR": "INDUS", "MODDATE": null, "ASSOC": null }, "geometry": { "type": "Point", "coordinates": [ -83.01063, 40.157 ] } },
{ "type": "Feature", "properties": { "ID": "10848", "NAME": "Emery Forwarding-Vandalia-OH", "TYPE": "AIR", "MODE_TYPE": "AIR & TRUCK", "CITY": "Vandalia", "STATE": "OH", "FIPS": "39", "ZIP": "45377", "ZIP2": null, "PARCEL": 0.000000, "LATITUDE": 39.898360, "LONGITUDE": -84.226430, "GEOSOURCE": "GDT 2001 STREETS", "CREATEDATE": "2003\/04\/09", "CREATOR": "INDUS", "MODDATE": null, "ASSOC": null }, "geometry": { "type": "Point", "coordinates": [ -84.22643, 39.89836 ] } },
{ "type": "Feature", "properties": { "ID": "1085", "NAME": "OHIO VALLEY RELOAD", "TYPE": "RAIL", "MODE_TYPE": "RAIL & TRUCK", "CITY": "MILLWOOD", "STATE": "KY", "FIPS": "21", "ZIP": "42762", "ZIP2": "9098", "PARCEL": 0.000000, "LATITUDE": 37.450290, "LONGITUDE": -86.389110, "GEOSOURCE": "GDT 2000 STREETS", "CREATEDATE": "2003\/04\/09", "CREATOR": "INDUS", "MODDATE": null, "ASSOC": "CN" }, "geometry": { "type": "Point", "coordinates": [ -86.38911, 37.45029 ] } },
{ "type": "Feature", "properties": { "ID": "1086", "NAME": "PREMIER BULK DISTRIBUTION", "TYPE": "RAIL", "MODE_TYPE": "RAIL & TRUCK", "CITY": "HARVEY", "STATE": "IL", "FIPS": "17", "ZIP": "60425", "ZIP2": null, "PARCEL": 0.000000, "LATITUDE": 41.546910, "LONGITUDE": -87.601460, "GEOSOURCE": "GDT 2000 STREETS", "CREATEDATE": "2003\/04\/09", "CREATOR": "INDUS", "MODDATE": null, "ASSOC": "CN" }, "geometry": { "type": "Point", "coordinates": [ -87.60146, 41.54691 ] } },
{ "type": "Feature", "properties": { "ID": "10863", "NAME": "Menlo Worldwide Logistics-Vandalia-OH", "TYPE": "AIR", "MODE_TYPE": "AIR & TRUCK", "CITY": "Vandalia", "STATE": "OH", "FIPS": "39", "ZIP": "45377", "ZIP2": null, "PARCEL": 0.000000, "LATITUDE": 39.912540, "LONGITUDE": -84.224050, "GEOSOURCE": "GDT 2001 STREETS", "CREATEDATE": "2003\/04\/09", "CREATOR": "INDUS", "MODDATE": null, "ASSOC": null }, "geometry": { "type": "Point", "coordinates": [ -84.22405, 39.91254 ] } },
{ "type": "Feature", "properties": { "ID": "10864", "NAME": "Emery Forwarding-Toledo-OH", "TYPE": "AIR", "MODE_TYPE": "AIR & TRUCK", "CITY": "Toledo", "STATE": "OH", "FIPS": "39", "ZIP": "43615", "ZIP2": null, "PARCEL": 0.000000, "LATITUDE": 41.623870, "LONGITUDE": -83.680420, "GEOSOURCE": "GDT 2001 STREETS", "CREATEDATE": "2003\/04\/09", "CREATOR": "INDUS", "MODDATE": null, "ASSOC": null }, "geometry": { "type": "Point", "coordinates": [ -83.68042, 41.62387 ] } },
{ "type": "Feature", "properties": { "ID": "10865", "NAME": "Emery Forwarding-Oklahoma City-OK", "TYPE": "AIR", "MODE_TYPE": "AIR & TRUCK", "CITY": "Oklahoma City", "STATE": "OK", "FIPS": "40", "ZIP": "73159", "ZIP2": null, "PARCEL": 0.000000, "LATITUDE": 35.406380, "LONGITUDE": -97.594780, "GEOSOURCE": "GDT 2001 STREETS", "CREATEDATE": "2003\/04\/09", "CREATOR": "INDUS", "MODDATE": null, "ASSOC": null }, "geometry": { "type": "Point", "coordinates": [ -97.59478, 35.40638 ] } },
{ "type": "Feature", "properties": { "ID": "10868", "NAME": "Emery Forwarding-Portland-OR", "TYPE": "AIR", "MODE_TYPE": "AIR & TRUCK", "CITY": "Portland", "STATE": "OR", "FIPS": "41", "ZIP": "97218", "ZIP2": null, "PARCEL": 0.000000, "LATITUDE": 45.581750, "LONGITUDE": -122.608190, "GEOSOURCE": "GDT 2001 STREETS", "CREATEDATE": "2003\/04\/09", "CREATOR": "INDUS", "MODDATE": null, "ASSOC": null }, "geometry": { "type": "Point", "coordinates": [ -122.60819, 45.58175 ] } },
{ "type": "Feature", "properties": { "ID": "10869", "NAME": "Emery Customs Brokers-Portland-OR", "TYPE": "AIR", "MODE_TYPE": "AIR & TRUCK", "CITY": "Portland", "STATE": "OR", "FIPS": "41", "ZIP": "97218", "ZIP2": null, "PARCEL": 0.000000, "LATITUDE": 45.581750, "LONGITUDE": -122.608190, "GEOSOURCE": "GDT 2001 STREETS", "CREATEDATE": "2003\/04\/09", "CREATOR": "INDUS", "MODDATE": null, "ASSOC": null }, "geometry": { "type": "Point", "coordinates": [ -122.60819, 45.58175 ] } },
{ "type": "Feature", "properties": { "ID": "1087", "NAME": "CARGOFLO RAILPORT", "TYPE": "RAIL", "MODE_TYPE": "RAIL & TRUCK", "CITY": "CHICAGO", "STATE": "IL", "FIPS": "17", "ZIP": "60609", "ZIP2": null, "PARCEL": 0.000000, "LATITUDE": 41.815770, "LONGITUDE": -87.677100, "GEOSOURCE": "GDT 2000 STREETS", "CREATEDATE": "2003\/04\/09", "CREATOR": "INDUS", "MODDATE": null, "ASSOC": "CN" }, "geometry": { "type": "Point", "coordinates": [ -87.6771, 41.81577 ] } },
{ "type": "Feature", "properties": { "ID": "10870", "NAME": "Emery Forwarding-Breinigsville-PA", "TYPE": "AIR", "MODE_TYPE": "AIR & TRUCK", "CITY": "Breinigsville", "STATE": "PA", "FIPS": "42", "ZIP": "18031", "ZIP2": null, "PARCEL": 0.000000, "LATITUDE": 40.575360, "LONGITUDE": -75.630800, "GEOSOURCE": "GDT 2001 STREETS", "CREATEDATE": "2003\/04\/09", "CREATOR": "INDUS", "MODDATE": null, "ASSOC": null }, "geometry": { "type": "Point", "coordinates": [ -75.6308, 40.57536 ] } },
{ "type": "Feature", "properties": { "ID": "10871", "NAME": "Emery Forwarding-Erie-PA", "TYPE": "AIR", "MODE_TYPE": "AIR & TRUCK", "CITY": "Erie", "STATE": "PA", "FIPS": "42", "ZIP": "16509", "ZIP2": null, "PARCEL": 0.000000, "LATITUDE": 42.098970, "LONGITUDE": -80.015350, "GEOSOURCE": "GDT 2001 STREETS", "CREATEDATE": "2003\/04\/09", "CREATOR": "INDUS", "MODDATE": null, "ASSOC": null }, "geometry": { "type": "Point", "coordinates": [ -80.01535, 42.09897 ] } },
{ "type": "Feature", "properties": { "ID": "10872", "NAME": "Emery Forwarding-Middletown-PA", "TYPE": "AIR", "MODE_TYPE": "AIR & TRUCK", "CITY": "Middletown", "STATE": "PA", "FIPS": "42", "ZIP": "17057", "ZIP2": null, "PARCEL": 0.000000, "LATITUDE": 40.199110, "LONGITUDE": -76.769430, "GEOSOURCE": "GDT 2001 STREETS", "CREATEDATE": "2003\/04\/09", "CREATOR": "INDUS", "MODDATE": null, "ASSOC": null }, "geometry": { "type": "Point", "coordinates": [ -76.76943, 40.19911 ] } },
{ "type": "Feature", "properties": { "ID": "10873", "NAME": "Emery Forwarding-Ridley Park-PA", "TYPE": "AIR", "MODE_TYPE": "AIR & TRUCK", "CITY": "Ridley Park", "STATE": "PA", "FIPS": "42", "ZIP": "19078", "ZIP2": null, "PARCEL": 0.000000, "LATITUDE": 39.863390, "LONGITUDE": -75.324280, "GEOSOURCE": "GDT 2001 STREETS", "CREATEDATE": "2003\/04\/09", "CREATOR": "INDUS", "MODDATE": null, "ASSOC": null }, "geometry": { "type": "Point", "coordinates": [ -75.32428, 39.86339 ] } },
{ "type": "Feature", "properties": { "ID": "10874", "NAME": "Emery Forwarding-Moon Township-PA", "TYPE": "AIR", "MODE_TYPE": "AIR & TRUCK", "CITY": "Moon Township", "STATE": "PA", "FIPS": "42", "ZIP": "15108", "ZIP2": null, "PARCEL": 0.000000, "LATITUDE": 40.512600, "LONGITUDE": -80.233600, "GEOSOURCE": "GDT 2001 STREETS", "CREATEDATE": "2003\/04\/09", "CREATOR": "INDUS", "MODDATE": null, "ASSOC": null }, "geometry": { "type": "Point", "coordinates": [ -80.2336, 40.5126 ] } },
{ "type": "Feature", "properties": { "ID": "10875", "NAME": "Emery Customs Brokers-Moon Township-PA", "TYPE": "AIR", "MODE_TYPE": "AIR & TRUCK", "CITY": "Moon Township", "STATE": "PA", "FIPS": "42", "ZIP": "15108", "ZIP2": null, "PARCEL": 0.000000, "LATITUDE": 40.512600, "LONGITUDE": -80.233600, "GEOSOURCE": "GDT 2001 STREETS", "CREATEDATE": "2003\/04\/09", "CREATOR": "INDUS", "MODDATE": null, "ASSOC": null }, "geometry": { "type": "Point", "coordinates": [ -80.2336, 40.5126 ] } },
{ "type": "Feature", "properties": { "ID": "10876", "NAME": "Emery Forwarding-Warwick-RI", "TYPE": "AIR", "MODE_TYPE": "AIR & TRUCK", "CITY": "Warwick", "STATE": "RI", "FIPS": "44", "ZIP": "02888", "ZIP2": null, "PARCEL": 0.000000, "LATITUDE": 41.733570, "LONGITUDE": -71.422930, "GEOSOURCE": "GDT 2001 STREETS", "CREATEDATE": "2003\/04\/09", "CREATOR": "INDUS", "MODDATE": null, "ASSOC": null }, "geometry": { "type": "Point", "coordinates": [ -71.42293, 41.73357 ] } },
{ "type": "Feature", "properties": { "ID": "10877", "NAME": "Emery Forwarding-Ladson-SC", "TYPE": "AIR", "MODE_TYPE": "AIR & TRUCK", "CITY": "Ladson", "STATE": "SC", "FIPS": "45", "ZIP": "29456", "ZIP2": null, "PARCEL": 0.000000, "LATITUDE": 32.978000, "LONGITUDE": -80.114100, "GEOSOURCE": "GDT 2001 STREETS", "CREATEDATE": "2003\/04\/09", "CREATOR": "INDUS", "MODDATE": null, "ASSOC": null }, "geometry": { "type": "Point", "coordinates": [ -80.1141, 32.978 ] } },
{ "type": "Feature", "properties": { "ID": "10878", "NAME": "Emery Customs Brokers-Ladson-SC", "TYPE": "AIR", "MODE_TYPE": "AIR & TRUCK", "CITY": "Ladson", "STATE": "SC", "FIPS": "45", "ZIP": "29456", "ZIP2": null, "PARCEL": 0.000000, "LATITUDE": 32.978000, "LONGITUDE": -80.114100, "GEOSOURCE": "GDT 2001 STREETS", "CREATEDATE": "2003\/04\/09", "CREATOR": "INDUS", "MODDATE": null, "ASSOC": null }, "geometry": { "type": "Point", "coordinates": [ -80.1141, 32.978 ] } },
{ "type": "Feature", "properties": { "ID": "10879", "NAME": "Emery Ocean Services-Ladson-SC", "TYPE": "AIR", "MODE_TYPE": "AIR & TRUCK", "CITY": "Ladson", "STATE": "SC", "FIPS": "45", "ZIP": "29456", "ZIP2": null, "PARCEL": 0.000000, "LATITUDE": 32.978000, "LONGITUDE": -80.114100, "GEOSOURCE": "GDT 2001 STREETS", "CREATEDATE": "2003\/04\/09", "CREATOR": "INDUS", "MODDATE": null, "ASSOC": null }, "geometry": { "type": "Point", "coordinates": [ -80.1141, 32.978 ] } },
{ "type": "Feature", "properties": { "ID": "1088", "NAME": "CARGOFLO HARVEY ILLINOIS", "TYPE": "TRUCK", "MODE_TYPE": "RAIL & TRUCK", "CITY": "HARVEY", "STATE": "IL", "FIPS": "17", "ZIP": "60426", "ZIP2": null, "PARCEL": 0.000000, "LATITUDE": 41.585460, "LONGITUDE": -87.646230, "GEOSOURCE": "GDT 2000 STREETS", "CREATEDATE": "2003\/04\/09", "CREATOR": "INDUS", "MODDATE": null, "ASSOC": "CN" }, "geometry": { "type": "Point", "coordinates": [ -87.64623, 41.58546 ] } },
{ "type": "Feature", "properties": { "ID": "10880", "NAME": "Emery Forwarding-West Columbia-SC", "TYPE": "AIR", "MODE_TYPE": "AIR & TRUCK", "CITY": "West Columbia", "STATE": "SC", "FIPS": "45", "ZIP": "29170", "ZIP2": null, "PARCEL": 0.000000, "LATITUDE": 33.949280, "LONGITUDE": -81.134320, "GEOSOURCE": "GDT 2001 STREETS", "CREATEDATE": "2003\/04\/09", "CREATOR": "INDUS", "MODDATE": null, "ASSOC": null }, "geometry": { "type": "Point", "coordinates": [ -81.13432, 33.94928 ] } },
{ "type": "Feature", "properties": { "ID": "10882", "NAME": "Emery Customs Brokers-Memphis-TN", "TYPE": "AIR", "MODE_TYPE": "AIR & TRUCK", "CITY": "Memphis", "STATE": "TN", "FIPS": "47", "ZIP": "38132", "ZIP2": null, "PARCEL": 0.000000, "LATITUDE": 35.069950, "LONGITUDE": -90.011330, "GEOSOURCE": "GDT 2001 STREETS", "CREATEDATE": "2003\/04\/09", "CREATOR": "INDUS", "MODDATE": null, "ASSOC": null }, "geometry": { "type": "Point", "coordinates": [ -90.01133, 35.06995 ] } },
{ "type": "Feature", "properties": { "ID": "1089", "NAME": "TQW WAREHOUSE", "TYPE": "TRUCK", "MODE_TYPE": "RAIL & TRUCK", "CITY": "EFFINGHAM", "STATE": "IL", "FIPS": "17", "ZIP": "62401", "ZIP2": "4266", "PARCEL": 0.000000, "LATITUDE": 39.090400, "LONGITUDE": -88.542800, "GEOSOURCE": "GDT 2000 STREETS", "CREATEDATE": "2003\/04\/09", "CREATOR": "INDUS", "MODDATE": null, "ASSOC": "CN" }, "geometry": { "type": "Point", "coordinates": [ -88.5428, 39.0904 ] } },
{ "type": "Feature", "properties": { "ID": "10891", "NAME": "Emery Forwarding-Alcoa-TN", "TYPE": "AIR", "MODE_TYPE": "AIR & TRUCK", "CITY": "Alcoa", "STATE": "TN", "FIPS": "47", "ZIP": "37701", "ZIP2": null, "PARCEL": 0.000000, "LATITUDE": 35.832020, "LONGITUDE": -83.973000, "GEOSOURCE": "GDT 2001 STREETS", "CREATEDATE": "2003\/04\/09", "CREATOR": "INDUS", "MODDATE": null, "ASSOC": null }, "geometry": { "type": "Point", "coordinates": [ -83.973, 35.83202 ] } },
{ "type": "Feature", "properties": { "ID": "10897", "NAME": "Emery Forwarding-Memphis-TN", "TYPE": "AIR", "MODE_TYPE": "AIR & TRUCK", "CITY": "Memphis", "STATE": "TN", "FIPS": "47", "ZIP": "38132", "ZIP2": null, "PARCEL": 0.000000, "LATITUDE": 35.069950, "LONGITUDE": -90.011330, "GEOSOURCE": "GDT 2001 STREETS", "CREATEDATE": "2003\/04\/09", "CREATOR": "INDUS", "MODDATE": null, "ASSOC": null }, "geometry": { "type": "Point", "coordinates": [ -90.01133, 35.06995 ] } },
{ "type": "Feature", "properties": { "ID": "1090", "NAME": "CN-EAST ST. LOUIS-IL", "TYPE": "RAIL", "MODE_TYPE": "RAIL & TRUCK", "CITY": "EAST ST. LOUIS", "STATE": "IL", "FIPS": "17", "ZIP": "62201", "ZIP2": "2297", "PARCEL": 0.000000, "LATITUDE": 38.642250, "LONGITUDE": -90.106740, "GEOSOURCE": "GDT 2000 STREETS", "CREATEDATE": "2003\/04\/09", "CREATOR": "INDUS", "MODDATE": null, "ASSOC": "CSXI" }, "geometry": { "type": "Point", "coordinates": [ -90.10674, 38.64225 ] } },